,Geo Point,Latitude,Longitude,OBJECTID_1,OBJECTID,COMPONENT,Site Name,Joint Base,State Terr,COUNTRY,Oper Stat,PERIMETER,AREA,Shape_Leng,Shape_Area
0,"31.2309993833, -85.6506347178",31.2309993833,-85.6506347178,26,65,Army Active,Allen Stagefield AL,,AL,United States,Active,1.64138338,0.17657484,3170.633316,627423.9947
1,"31.8157331822, -85.6497984957",31.8157331822,-85.6497984957,33,73,Army Active,Louisville Stagefield AL,,AL,United States,Active,1.7233805,0.16235675,3357.487241,584096.7527
2,"33.1594636742, -106.425696182",33.1594636742,-106.425696182,66,261,Army Active,White Sands Missile Range NM,,NM,United States,Active,332.1331893,3548.570164,648984.1004,13150788697.0
3,"37.0130203962, -76.3043760544",37.0130203962,-76.3043760544,114,899,Army Active,Fort Monroe,,VA,United States,Inactive,10.20968811,0.87723297,21033.88011,3570032.527
4,"21.3866284869, -157.905641308",21.3866284869,-157.905641308,161,1237,MC Active,MCB Camp Smith,,HI,United States,Active,2.9318851,0.33124636,5098.778436,994400.4296
5,"21.3621462703, -157.718266082",21.3621462703,-157.718266082,162,1238,MC Active,MC Trng Area Bellows,,HI,United States,Active,9.14424433,1.61154585,15896.7775,4836265.588
6,"42.0917332083, -87.836545042",42.0917332083,-87.836545042,197,1375,Navy Active,Glenview,,IL,United States,Active,2.07135695,0.05065759,4685.568647,238423.8724
7,"27.8965304593, -98.0434307225",27.8965304593,-98.0434307225,237,1555,Navy Active,ALF Orange,,TX,United States,Active,24.10230352,5.29396923,44590.56948,17620483.39
8,"38.6628404569, -121.403205934",38.6628404569,-121.403205934,260,1716,AF Active,McClellan AFB,,CA,United States,Inactive,13.20287133,4.50694328,27983.73065,19173735.76
9,"42.7402329675, -115.563336812",42.7402329675,-115.563336812,262,1722,AF Active,Saylor Creek Air Force Range,,ID,United States,Active,57.14622739,171.097376,128325.1523,821991690.3
10,"29.3567318395, -100.782932919",29.3567318395,-100.782932919,286,2449,AF Active,Laughlin AFB,,TX,United States,Active,12.78352045,6.39610569,24159.70065,21883369.47
11,"39.7066728959, -104.757676168",39.7066728959,-104.757676168,303,2517,AF Active,Buckley AFB,,CO,United States,Active,13.01986607,5.17886,28139.16482,22690955.39
12,"30.0454712012, -85.5513688862",30.0454712012,-85.5513688862,311,2531,AF Active,Tyndall AFB,,FL,United States,Active,118.356301,45.24040184,225397.8182,156898876.5
13,"32.9398358551, -88.5791426256",32.9398358551,-88.5791426256,325,2574,AF Active,Columbus Auxiliary Airfield,,MS,United States,Active,6.76446487,1.41000299,13312.33725,5199333.123
14,"31.4321781557, -100.404389232",31.4321781557,-100.404389232,327,2577,AF Active,Goodfellow AFB,,TX,United States,Active,5.71761646,1.68714349,11091.62113,6020376.038
15,"61.2656445617, -149.641025468",61.2656445617,-149.641025468,338,2636,AF Active,Fort Richardson,Joint Base Elmendorf - Richardson,AK,United States,Active,78.52652418,93.34278088,261351.6652,1042266328.0
16,"64.3175377667, -146.646980929",64.3175377667,-146.646980929,341,2669,AF Active,Birch Lake Recreation Annex,,AK,United States,Active,2.03649307,0.07970144,7458.385675,1094463.863
17,"38.1779889015, -85.7237952525",38.1779889015,-85.7237952525,362,2829,AF Guard,Louisville IAP-Standiford FL Site 1,,KY,United States,Active,1.52012828,0.11845742,3192.379123,497282.2369
18,"29.3820160313, -98.5645372905",29.3820160313,-98.5645372905,421,2952,AF Active,Kelly AFB,Joint Base San Antonio,TX,United States,Active,13.83437218,2.93206231,26046.97785,10036867.25
19,"34.9000362492, -92.3068019391",34.9000362492,-92.3068019391,428,3056,Army Guard,NG Camp Joseph T Robinson,,AR,United States,Active,37.22093134,51.75645043,74994.50477,199749490.3
20,"41.0800682176, -96.3363620056",41.0800682176,-96.3363620056,478,3547,Army Guard,NG Camp Ashland,,NE,United States,Active,7.23770611,1.63072717,15787.78185,7440105.561
21,"60.7955330346, -161.767465275",60.7955330346,-161.767465275,480,3556,Army Guard,NG Bethel ARM FMS,,AK,United States,Inactive,0.32327446,0.00577393,1060.33527,62594.31471
22,"13.4740733886, 144.809884745",13.4740733886,144.809884745,492,3707,Army Guard,NG GUARNG Barrigada Complex,,GU,Guam,Active,1.28716361,0.08005503,2090.006157,220561.9729
23,"39.4547971565, -79.6692506335",39.4547971565,-79.6692506335,582,4970,Army Guard,NG Volkstone,,WV,United States,Active,5.72896578,0.78777573,12345.26197,3426805.983
24,"32.7000190451, -117.207088939",32.7000190451,-117.207088939,655,5594,Navy Active,NAVBASE Coronado,,CA,United States,Active,8.97992621,4.33722524,17677.26125,15907751.3
25,"13.5499832925, 144.830853077",13.5499832925,144.830853077,665,5611,Navy Active,Finegayan South,Joint Region Marianas,GU,Guam,Active,3.31942933,0.45230307,5414.519314,1246937.261
26,"47.9486816236, -97.0860532381",47.9486816236,-97.0860532381,708,5803,AF Active,Grand Forks Defense Fuel Support Point,,ND,United States,Active,0.51556692,0.01757549,1273.719281,101397.027
27,"21.312229301, -158.066092323",21.312229301,-158.066092323,723,5915,Navy Active,CSO Barbers Point HI,,HI,United States,Inactive,24.94562883,4.45031319,43351.03466,13346432.24
28,"32.26208341, -106.075404444",32.26208341,-106.075404444,731,5952,Army Active,Fort Bliss,,TX,United States,Active,347.0801243,1742.551283,676117.1607,6329991947.0
29,"48.1997770937, -121.925681299",48.1997770937,-121.925681299,763,6167,Navy Active,Jim Creek,,WA,United States,Active,15.1572205,7.53465988,37470.85523,43892950.35
30,"19.7144170574, -155.626600781",19.7144170574,-155.626600781,5,6,Army Active,Pohakuloa Training Area,,HI,United States,Active,89.06464246,205.6747692,152591.132,604225947.3
31,"34.0182119696, -77.9732412004",34.0182119696,-77.9732412004,46,101,Army Active,Military Ocean Tml Sunny Point,,NC,United States,Active,40.63022482,18.03094326,80617.74116,68147513.85
32,"21.4469197196, -158.191081477",21.4469197196,-158.191081477,61,172,Army Active,Waianae Kai Military Reservation,,HI,United States,Active,1.01506332,0.02107027,1765.97557,63304.54806
33,"40.9543096396, -74.5446255065",40.9543096396,-74.5446255065,105,677,Army Active,Picatinny Arsenal,,NJ,United States,Active,21.652624,10.27481807,47441.75799,46701010.1
34,"38.8677348506, -77.0793350205",38.8677348506,-77.0793350205,204,1412,Navy Active,Arlington Service Ctr,,VA,United States,Active,0.80304023,0.03030048,1713.357672,129642.211
35,"30.3779481049, -89.1263993012",30.3779481049,-89.1263993012,222,1460,Navy Active,CBC Gulfport MS,,MS,United States,Active,6.73341033,1.75055909,12954.98135,6111917.727
36,"41.0243231993, -113.216942448",41.0243231993,-113.216942448,251,1683,AF Active,UTTR - North,,UT,United States,Active,129.8917705,575.8092551,288482.4218,2622709438.0
37,"33.8888501058, -117.258472446",33.8888501058,-117.258472446,274,1801,AF Reserve,March ARB,,CA,United States,Active,14.77766976,3.37656166,29316.22708,12723292.68
38,"43.1138099132, -70.814765745",43.1138099132,-70.814765745,284,2229,AF Active,Newington Defense Fuel Support Point,,NH,United States,Active,2.11401517,0.25103042,4802.676505,1220633.495
39,"32.890154532, -112.728184427",32.890154532,-112.728184427,334,2599,AF Active,Gila Bend Air Force Auxiliary Field,,AZ,United States,Active,7.41839854,3.14372097,14524.71613,11579261.29
40,"40.0272120222, -74.3752601945",40.0272120222,-74.3752601945,405,2920,AF Active,Lakehurst,Joint Base McGuire - Dix - Lakehurst,NJ,United States,Active,19.03346649,11.62878241,41616.62165,51425864.88
41,"29.5294863383, -98.2783394708",29.5294863383,-98.2783394708,424,2955,AF Active,Randolph AFB,Joint Base San Antonio,TX,United States,Active,16.99211849,4.5043611,32130.76064,15463013.59
42,"32.8613917382, -83.6056544923",32.8613917382,-83.6056544923,491,3706,Army Guard,NG Macon Readiness Center,,GA,United States,Active,0.83216291,0.04500699,1633.926757,165667.5185
43,"36.2015259374, -78.801333792",36.2015259374,-78.801333792,500,3838,Army Guard,NG MTA Camp Butner,,NC,United States,Active,12.78003577,7.67854008,26269.57425,30603785.42
44,"46.1288264462, -123.944346596",46.1288264462,-123.944346596,507,3892,Army Guard,NG MTA Camp Rilea,,OR,United States,Active,8.89484029,2.81777389,21117.39325,15190718.15
45,"38.1853052947, -84.9089928237",38.1853052947,-84.9089928237,594,5204,Army Guard,NG Frankfort Boone NG Center,,KY,United States,Active,6.58181753,0.55610637,13914.79639,2335016.537
46,"22.1303466109, -159.725349007",22.1303466109,-159.725349007,606,5367,Navy Active,Makaha Ridge,,HI,United States,Active,2.4600103,0.32285486,4309.62845,979193.3599
47,"30.3446850234, -87.5407700889",30.3446850234,-87.5407700889,650,5560,Navy Active,NOLF Wolf,,AL,United States,Active,5.45687663,0.65753993,10409.16634,2294183.927
48,"38.9820668667, -76.4838558469",38.9820668667,-76.4838558469,685,5698,Navy Active,NAVSUPPACT Annapolis,,MD,United States,Active,2.65869576,0.29358261,5704.206949,1260123.036
49,"26.9825205984, -80.1068614293",26.9825205984,-80.1068614293,714,5861,AF Active,Jonathan Dickinson Tracking Annex,,FL,United States,Active,1.3989964,0.01747948,2589.572607,57233.37854
50,"38.3171489216, -104.33242089",38.3171489216,-104.33242089,49,106,Army Active,Pueblo Chemical Depot,,CO,United States,Active,25.51299597,35.66381945,53914.19727,150285320.5
51,"33.1053210003, -114.213605815",33.1053210003,-114.213605815,67,262,Army Active,Yuma Proving Ground,,AZ,United States,Active,267.5264085,1307.98611,525746.7313,4841127730.0
52,"35.3743268559, -116.633388332",35.3743268559,-116.633388332,86,634,Army Active,NTC and Fort Irwin,,CA,United States,Active,168.383418,1180.204962,343431.2867,4607056568.0
53,"38.5411518559, -118.654781649",38.5411518559,-118.654781649,99,658,Army Active,Hawthorne Army Depot,,NV,United States,Active,152.4509978,228.2433508,323910.0957,967745616.7
54,"39.0968504854, -94.2501544756",39.0968504854,-94.2501544756,102,667,Army Active,Lake City AAP,,MO,United States,Active,11.02776385,6.76156222,23772.46372,29115999.46
55,"35.0110394592, -76.4580795598",35.0110394592,-76.4580795598,137,1108,MC Active,Point of Marsh Target,,NC,United States,Active,50.4921902,18.61748255,101991.2938,72045695.39
56,"34.8595418908, -116.94453311",34.8595418908,-116.94453311,144,1138,MC Active,MCLB Barstow,,CA,United States,Active,13.30399099,5.91717573,26967.78039,22814673.37
57,"36.8137764139, -76.0309744664",36.8137764139,-76.0309744664,175,1299,Navy Active,NAS Oceana VA,,VA,United States,Active,14.05080616,8.29236824,29097.4057,33572660.96
58,"13.4330059068, 144.687514491",13.4330059068,144.687514491,208,1418,Navy Active,Tenjo Vista,Joint Region Marianas,GU,Guam,Active,2.57728448,0.36024833,4179.756094,992196.0512
59,"41.1180005456, -95.9064350192",41.1180005456,-95.9064350192,263,1763,AF Active,Offut AFB,,NE,United States,Active,11.89015959,3.27800877,26197.02943,14972870.17
60,"48.7245309314, -97.9030701569",48.7245309314,-97.9030701569,270,1792,AF Active,Cavalier Asn,,ND,United States,Active,2.79210683,0.41544057,7053.001535,2470410.136
61,"42.937170491, -71.6412530372",42.937170491,-71.6412530372,306,2521,AF Active,New Boston Air Station,,NH,United States,Active,9.25955043,4.51049368,21056.42516,21806815.23
62,"45.5783794843, -122.595521925",45.5783794843,-122.595521925,376,2858,AF Guard,Portland IAP ANG,,OR,United States,Active,2.77056327,0.3463822,6594.520441,1830992.106
63,"38.5414818076, -89.8537036559",38.5414818076,-89.8537036559,408,2927,AF Active,Scott AFB,,IL,United States,Active,13.67213131,4.53168279,29196.77373,19214358.97
64,"35.6982004144, -95.1672665598",35.6982004144,-95.1672665598,454,3323,Army Guard,NG Camp Gruber,,OK,United States,Active,38.68109414,52.31582472,78195.79931,205894578.7
65,"41.1935295586, -96.4384536797",41.1935295586,-96.4384536797,477,3546,Army Guard,NG Mead TS/FMS 06/Utes 02,,NE,United States,Active,6.08187224,1.86137173,13430.81875,8521607.208
66,"40.5459251377, -98.2756208599",40.5459251377,-98.2756208599,479,3548,Army Guard,NG Greenlief TS/UTES 01,,NE,United States,Active,10.01845917,5.14415871,21699.17602,23097912.75
67,"32.5228718308, -111.333461822",32.5228718308,-111.333461822,496,3767,Army Guard,NG Silver Bell Army Heliport,,AZ,United States,Active,2.14916014,0.25022128,4234.370287,914128.1491
68,"30.3233531244, -89.8085256308",30.3233531244,-89.8085256308,499,3808,Army Guard,NG Camp Villere,,LA,United States,Active,6.40481827,2.3082715,12186.481,8050172.098
69,"40.9793982663, -80.3247870434",40.9793982663,-80.3247870434,566,4768,Army Guard,NG New Castle Readiness Center/FMS 9,,PA,United States,Active,0.37172742,0.0092156,817.8890364,41918.21517
70,"32.8550925586, -97.3503623315",32.8550925586,-97.3503623315,577,4906,Army Guard,NG Saginaw,,TX,United States,Active,2.89218953,0.2304504,5656.132496,848152.2596
71,"47.552709639, -122.681322245",47.552709639,-122.681322245,580,4947,Army Guard,NG Bremerton,,WA,United States,Active,1.4761594,0.12644353,3587.799231,718532.8444
72,"39.2058446774, -118.232177679",39.2058446774,-118.232177679,626,5488,Navy Active,Target B-17,,NV,United States,Active,38.12624532,85.3415596,81288.1746,368623145.6
73,"32.7116634719, -116.518554891",32.7116634719,-116.518554891,659,5598,Navy Active,Camp Morena,,CA,United States,Active,1.32714872,0.09427915,2583.404324,345879.3159
74,"38.9886655979, -76.4943484486",38.9886655979,-76.4943484486,689,5702,Navy Active,Upper Yard Annapolis,,MD,United States,Active,2.80787407,0.25335599,6010.044836,1087668.264
75,"28.2458871657, -98.724210101",28.2458871657,-98.724210101,747,6007,Navy Active,Yankee Target Range,,TX,United States,Active,8.327782,4.60186446,15592.96035,15415862.5
76,"45.0981520846, -93.1742357902",45.0981520846,-93.1742357902,771,6207,Army Active,Twin Cities AAP,,MN,United States,Inactive,5.44869563,0.26133082,12750.07359,1358315.986
77,"33.3566628083, -82.2372795186",33.3566628083,-82.2372795186,15,46,Army Active,Fort Gordon,,GA,United States,Active,49.52881821,86.73309413,98362.81906,322843994.9
78,"35.0301022844, -79.4816241675",35.0301022844,-79.4816241675,80,582,Army Active,Camp Mackall,,NC,United States,Active,23.49752201,12.45540982,47586.12913,48222074.17
79,"38.452267261, -85.6060059365",38.452267261,-85.6060059365,117,948,Army Active,Indiana Army Ammunition Plant,,IN,United States,Inactive,6.66736653,2.40291953,14132.2844,10163590.76
80,"32.484834871, -80.7071873496",32.484834871,-80.7071873496,135,1083,MC Active,MCAS Beaufort,,SC,United States,Active,54.03658199,11.89888126,105881.2554,43434781.65
81,"36.816475644, -76.2994222614",36.816475644,-76.2994222614,167,1284,Navy Active,NAVSUPPACT Norfolk NSY,,VA,United States,Active,4.439523,0.72651883,9213.016698,2941604.1
82,"36.9022639632, -76.3023442266",36.9022639632,-76.3023442266,172,1293,Navy Active,Lafayette Rvr Complex,,VA,United States,Active,0.70323455,0.03096726,1453.263218,125662.8678
83,"47.7233921483, -122.714839767",47.7233921483,-122.714839767,225,1484,Navy Active,Bangor WA,,WA,United States,Active,17.15905357,11.39643406,41738.29131,65183622.59
84,"30.6490705509, -86.5276912145",30.6490705509,-86.5276912145,246,1665,AF Active,Eglin Air Force Auxiliary Field 3 Duke Fld,,FL,United States,Active,8.31817313,3.04210819,15928.52942,10680031.29
85,"39.8174211612, -84.0507057402",39.8174211612,-84.0507057402,256,1700,AF Active,Wright-Patt AFB,,OH,United States,Active,14.60653863,8.1629264,31571.47078,35879831.52
86,"29.38670604, -98.6180831793",29.38670604,-98.6180831793,329,2585,AF Active,Lackland AFB,Joint Base San Antonio,TX,United States,Active,13.39987668,4.13361456,25184.49302,14150797.39
87,"38.160004736, -89.7239409546",38.160004736,-89.7239409546,425,2963,Army Guard,NG Sparta Armory,,IL,United States,Active,13.35758693,4.11467525,28024.71295,17264901.14
88,"36.7939679589, -94.3642921962",36.7939679589,-94.3642921962,430,3085,Army Guard,NG MTA Camp Crowder Neosho,,MO,United States,Active,17.96236907,6.71082639,37032.87734,27155687.96
89,"40.4394550384, -78.4147910881",40.4394550384,-78.4147910881,452,3286,Army Guard,NG Hollidaysburg Readiness Center,,PA,United States,Active,0.93422328,0.03497157,2039.109805,156532.911
90,"31.3776577083, -92.3866852494",31.3776577083,-92.3866852494,475,3529,Army Guard,NG Camp Beauregard,,LA,United States,Active,7.36266735,1.12165463,14330.78874,3997898.752
91,"46.608471557, -111.971041404",46.608471557,-111.971041404,511,3930,Army Guard,NG Helena Aviation RC- AASF- C12,,MT,United States,Active,1.25925768,0.09363348,3045.74751,513667.4062
92,"42.7681480625, -84.5713082578",42.7681480625,-84.5713082578,516,3947,Army Guard,NG Lansing Joint Forces Readiness Center,,MI,United States,Active,1.27272813,0.09081836,2908.44868,436700.8865
93,"41.54343955, -83.0221332784",41.54343955,-83.0221332784,517,4022,Army Guard,NG Camp Perry Joint Training Center,,OH,United States,Active,7.49106579,0.80303791,16511.69905,3715882.619
94,"35.5035184926, -97.4701679958",35.5035184926,-97.4701679958,556,4626,Army Guard,NG Oklahoma Military Department,,OK,United States,Active,1.75144767,0.08793367,3524.914527,344407.3369
95,"38.785720474, -97.6388622613",38.785720474,-97.6388622613,593,5143,Army Guard,NG Salina KS Training Center,,KS,United States,Active,3.26458622,0.08301531,6943.093841,354374.7067
96,"35.1875402981, -111.741594825",35.1875402981,-111.741594825,620,5451,Navy Active,NAVOBSSTA Flagstaff AZ,,AZ,United States,Active,4.23170158,0.44851887,8576.199902,1743140.536
97,"39.3394330115, -118.880780116",39.3394330115,-118.880780116,625,5487,Navy Active,Target B-16,,NV,United States,Active,42.94972842,43.30089688,92479.6466,187738505.2
98,"30.3910783123, -87.6313191791",30.3910783123,-87.6313191791,641,5547,Navy Active,Barin Field,,AL,United States,Active,9.4056082,1.32276048,17930.59281,4619503.439
99,"32.7486743431, -117.197008871",32.7486743431,-117.197008871,672,5636,Navy Active,Old Town Site 1,,CA,United States,Active,1.59270899,0.07365039,3116.710025,270421.6852
100,"32.7136561362, -117.172024897",32.7136561362,-117.172024897,676,5651,Navy Active,Broadway Complex,,CA,United States,Active,0.68642006,0.02393591,1332.981839,87816.93547
101,"32.8048190699, -117.093958022",32.8048190699,-117.093958022,678,5660,Navy Active,Mission Gorge Rec Area,,CA,United States,Active,4.94075137,0.70028492,9696.044516,2574446.937
102,"40.0256494173, -74.5801329664",40.0256494173,-74.5801329664,727,5936,AF Active,McGuire,Joint Base McGuire - Dix - Lakehurst,NJ,United States,Active,12.06451918,4.9862457,26169.31894,22049494.46
103,"35.3427908944, -89.8597481799",35.3427908944,-89.8597481799,738,5982,Navy Active,Northside Mid-South,,TN,United States,Active,4.78180649,0.64515194,9767.138141,2516879.203
104,"35.0872036174, -90.1390498645",35.0872036174,-90.1390498645,739,5983,Navy Active,NSWC Carderock Div,,TN,United States,Active,1.4049036,0.10019131,2853.527622,388435.7675
105,"36.6032534708, -121.912105279",36.6032534708,-121.912105279,48,105,Army Active,Presidio of Monterey,,CA,United States,Active,4.35133598,0.61037804,9080.019355,2457793.611
106,"18.4127920097, -66.1214794902",18.4127920097,-66.1214794902,88,637,Army Reserve,Fort Buchanan,,PR,Puerto Rico,Active,7.45095832,1.15180283,12589.59475,3331642.406
107,"36.9215240082, -76.322723548",36.9215240082,-76.322723548,182,1318,Navy Active,Fire Fighters School,,VA,United States,Active,0.57708348,0.01915213,1204.220262,77756.42746
108,"13.3903260139, 144.686307577",13.3903260139,144.686307577,212,1432,Navy Active,Magazine Reservoir Naval Magazine,Joint Region Marianas,GU,Guam,Active,0.49320691,0.01601081,802.0905879,44081.3963
109,"35.3646392145, -86.0796716743",35.3646392145,-86.0796716743,242,1643,AF Active,Arnold,,TN,United States,Active,70.91531259,60.76822985,144104.9672,237197209.5
110,"30.394460792, -86.7427418884",30.394460792,-86.7427418884,243,1652,AF Active,Eglin AFB Site 2 Santa Rosa Island,,FL,United States,Active,33.25063043,4.97793308,64202.3793,17385730.88
111,"33.7961254892, -80.4817960181",33.7961254892,-80.4817960181,266,1783,AF Active,Poinsett Range,,SC,United States,Active,22.01892042,19.57179064,43451.94816,73590120.0
112,"38.7299115089, -93.5553845227",38.7299115089,-93.5553845227,285,2230,AF Active,Whiteman AFB,,MO,United States,Active,17.77861534,8.20858883,37665.75059,34986404.7
113,"43.1132212142, -78.9500571676",43.1132212142,-78.9500571676,307,2522,AF Reserve,Niagara Falls,,NY,United States,Active,7.01311971,0.98617091,16058.4848,4795074.597
114,"48.4515209628, -117.373850327",48.4515209628,-117.373850327,313,2546,AF Active,Cusick Survival Training Site,,WA,United States,Active,1.93270688,0.11752687,4833.901905,691401.4947
115,"43.1306561021, -89.3361064283",43.1306561021,-89.3361064283,391,2892,AF Guard,Truax ANGB,,WI,United States,Active,2.78801687,0.23109196,6320.820529,1124278.103
116,"29.6160801417, -95.1704814148",29.6160801417,-95.1704814148,414,2937,AF Guard,Ellington Field,,TX,United States,Active,3.34216296,0.33317385,6294.265626,1145693.92
117,"40.841020615, -96.7538721771",40.841020615,-96.7538721771,416,2946,AF Guard,Lincoln Map,,NE,United States,Active,2.00348056,0.17831156,4396.232584,807718.9653
118,"29.4595308379, -98.4407138221",29.4595308379,-98.4407138221,418,2948,AF Active,JBSA Sam Houston,Joint Base San Antonio,TX,United States,Active,16.5269834,4.24911492,31289.33716,14566909.12
119,"39.6614390075, -81.8394982857",39.6614390075,-81.8394982857,524,4091,Army Guard,NG McConnelsville Training Site,,OH,United States,Active,5.21173618,0.70097498,11178.04193,3067306.544
120,"45.5390766509, -94.0557892236",45.5390766509,-94.0557892236,548,4540,Army Guard,NG St Cloud AASF,,MN,United States,Active,1.13403848,0.08370848,2696.371945,441871.7097
121,"36.8161399548, -75.9791524396",36.8161399548,-75.9791524396,571,4833,Army Guard,NG Camp Pendleton SMR,,VA,United States,Active,4.09268468,0.47905218,8507.765341,1939620.403
122,"35.5981462433, -88.9129589106",35.5981462433,-88.9129589106,573,4870,Army Guard,NG Jackson Airport Armory,,TN,United States,Active,1.2570883,0.10038864,2552.167507,394110.6269
123,"27.7013359207, -97.4363492634",27.7013359207,-97.4363492634,622,5463,Navy Active,ALF Cabaniss,,TX,United States,Active,7.43584124,1.48044362,13796.03462,4910061.127
124,"33.2479609439, -119.506113048",33.2479609439,-119.506113048,682,5684,Navy Active,San Nicolas Island,,CA,United States,Active,24.33274484,27.21652316,48425.20593,101057345.3
125,"30.7137475905, -87.0201884489",30.7137475905,-87.0201884489,776,6238,Navy Active,NAS Whiting Field Milton FL,,FL,United States,Active,23.80991105,7.13505673,45642.39156,25082467.64
126,"45.8426458207, -119.437655677",45.8426458207,-119.437655677,43,95,Army Active,Umatilla Chemical Depot,Joint Base Lewis - McChord,OR,United States,Active,22.91816047,30.99643263,54808.14151,165395357.6
127,"39.9796100871, -82.8985258467",39.9796100871,-82.8985258467,74,571,Army Active,Defense Supply Center Columbus,,OH,United States,Active,3.93089208,0.90371811,8622.242175,3990832.414
128,"42.6609659498, -82.8128744872",42.6609659498,-82.8128744872,115,934,Army Active,US Army Garrison Selfridge,,MI,United States,Active,1.59094962,0.16074377,3572.721169,770292.0815
129,"35.4623986207, -108.598242168",35.4623986207,-108.598242168,126,991,Army Active,Fort Wingate Depot Activity,,NM,United States,Inactive,22.06779046,12.90102004,44885.73321,50477869.22
130,"19.9692428627, -155.719658833",19.9692428627,-155.719658833,129,1011,Army Active,Pupukea Paalaa Uka Mil Road,,HI,United States,Active,19.34411399,20.71375137,33196.82867,61045877.44
131,"32.337579472, -80.69617786",32.337579472,-80.69617786,143,1137,MC Active,MCRD Beaufort,,SC,United States,Active,21.15272895,12.92052491,41205.23023,47012138.93
132,"38.5203611824, -77.3647271918",38.5203611824,-77.3647271918,155,1173,MC Active,Marine Corps Museum,,VA,United States,Active,1.77670081,0.15763888,3779.601479,668000.6452
133,"39.8917550243, -75.1787438843",39.8917550243,-75.1787438843,178,1314,Navy Active,Det Phil Pny Annex,,PA,United States,Active,6.95737755,0.41201864,15106.61975,1814906.683
134,"41.535278318, -71.3096354954",41.535278318,-71.3096354954,192,1355,Navy Active,Naval Station Newport RI,,RI,United States,Active,27.72772266,1.43731762,61098.49732,6649185.975
135,"13.4489097645, 144.699606632",13.4489097645,144.699606632,209,1419,Navy Active,Sasa Valley,Joint Region Marianas,GU,Guam,Active,4.98917762,0.6576552,8093.186683,1811549.309
136,"40.4970086744, -113.563257825",40.4970086744,-113.563257825,250,1676,AF Active,Utah Test and Training Range South UT,,UT,United States,Active,156.9418559,900.7713739,345234.888,4038737671.0
137,"41.128082376, -111.991247141",41.128082376,-111.991247141,252,1693,AF Active,Hill AFB,,UT,United States,Active,17.92093484,10.33916226,39473.67159,47240351.47
138,"41.2673838021, -80.6786812118",41.2673838021,-80.6786812118,275,1802,AF Reserve,Youngstown,,OH,United States,Active,5.60290996,0.49828417,12414.41393,2286374.397
139,"38.2645314897, -121.942797537",38.2645314897,-121.942797537,293,2495,AF Active,Travis AFB,,CA,United States,Active,17.1767098,7.82631612,36365.81788,32932334.35
140,"38.9991596818, -104.999644284",38.9991596818,-104.999644284,294,2497,AF Active,The Farish Memorial Recreational Annex,,CO,United States,Active,6.19944523,1.05409456,13152.55446,4526616.593
141,"40.6539758948, -86.1518428016",40.6539758948,-86.1518428016,298,2503,AF Reserve,Grissom ARB,,IN,United States,Active,13.56951794,2.16776358,29654.23258,9764837.385
142,"37.4989475163, -122.498033406",37.4989475163,-122.498033406,301,2513,AF Active,Pillar Point AFS,,CA,United States,Active,1.93371248,0.09906553,4012.294442,408351.686
143,"32.3830076533, -86.356311322",32.3830076533,-86.356311322,323,2567,AF Active,Maxwell AFB,,AL,United States,Active,9.61208808,3.63838956,18795.07377,13251616.26
144,"64.6741086836, -147.060214201",64.6741086836,-147.060214201,342,2675,AF Active,Eielson AFB,,AK,United States,Active,41.45166079,31.00252335,151908.8677,436963305.2
145,"40.8369889702, -72.6434132546",40.8369889702,-72.6434132546,354,2804,AF Guard,Francis S Gabreski Airport,,NY,United States,Active,1.55114703,0.12961243,3398.57358,587043.1379
146,"41.5969299432, -71.4184961614",41.5969299432,-71.4184961614,377,2859,AF Guard,Quonset State Airport,,RI,United States,Active,2.24476347,0.16253112,4979.090761,753312.314
147,"40.0892143305, -83.0674428948",40.0892143305,-83.0674428948,447,3244,Army Guard,NG Beightler Armory,,OH,United States,Active,0.65483308,0.02723424,1414.426749,120654.7514
148,"38.9545040967, -79.9791154099",38.9545040967,-79.9791154099,562,4702,Army Guard,NG Elkins AFRC,,WV,United States,Active,2.17287439,0.2282298,4654.371252,978864.3635
149,"36.0173819633, -115.200674517",36.0173819633,-115.200674517,564,4726,Army Guard,NG Anthony Cometa Complex,,NV,United States,Active,1.66111534,0.09003115,3375.75922,357166.551
150,"44.4996364569, -73.1646298114",44.4996364569,-73.1646298114,587,5011,Army Guard,NG TS Camp Johnson,,VT,United States,Active,1.53965644,0.0958901,3599.697169,488243.628
151,"32.6678869196, -117.157059858",32.6678869196,-117.157059858,656,5595,Navy Active,Amphib Base Coronado East,,CA,United States,Active,5.52341556,0.77466416,10788.25169,2839230.971
152,"33.3401617984, -116.68138499",33.3401617984,-116.68138499,661,5605,Navy Active,Warner Springs Rts,,CA,United States,Active,23.25084967,9.52447707,46074.35196,35439349.95
153,"40.2073636557, -77.1688037409",40.2073636557,-77.1688037409,730,5944,Army Active,Carlisle Barracks,,PA,United States,Active,5.1381422,0.65458851,11208.54861,2910024.164
154,"38.822867706, -104.696062064",38.822867706,-104.696062064,741,5998,AF Active,Peterson AFB,,CO,United States,Active,12.59961731,2.15761494,26727.38548,9219933.037
155,"40.5270428347, -112.411357721",40.5270428347,-112.411357721,746,6005,Army Active,Tooele Army Depot,,UT,United States,Active,35.20739677,39.68713188,77403.85116,178100656.8
156,"36.596494345, -87.599046902",36.596494345,-87.599046902,9,13,Army Active,Fort Campbell TN,,TN,United States,Active,53.88963469,105.5917408,112830.5875,425111055.3
157,"38.8778215838, -77.0690379263",38.8778215838,-77.0690379263,10,14,Army Active,Arlington National Cemetery,,VA,United States,Active,5.87883889,0.9728508,12491.32133,4163569.171
158,"44.0335308735, -90.6765636531",44.0335308735,-90.6765636531,24,62,Army Reserve,Fort McCoy,,WI,United States,Active,66.12012551,93.26753841,151522.7275,467471228.3
159,"38.8671698257, -77.016494005",38.8671698257,-77.016494005,44,96,Army Active,Fort Lesley J McNair,Joint Base Myer - Henderson Hall,DC,United States,Active,1.94102298,0.16844624,4083.442352,720694.9164
160,"21.5359637869, -158.019432628",21.5359637869,-158.019432628,59,170,Army Active,Helemano Military Reservation,,HI,United States,Active,2.83538388,0.44207169,4937.738477,1329789.341
161,"21.4768147455, -158.052424245",21.4768147455,-158.052424245,60,171,Army Active,USA Field Station Kunia,,HI,United States,Active,0.94787148,0.0492424,1649.443365,148005.9886
162,"34.461945779, -116.210925972",34.461945779,-116.210925972,151,1148,MC Active,Twentynine Palms,,CA,United States,Active,186.6516596,1190.21534,376644.2301,4545646506.0
163,"38.5520544383, -77.4571616476",38.5520544383,-77.4571616476,156,1174,MC Active,MCB Quantico,,VA,United States,Active,71.75051871,92.07653203,151866.3927,390519129.1
164,"36.7879489259, -76.3101638082",36.7879489259,-76.3101638082,170,1290,Navy Active,St Juliens Creek East,,VA,United States,Active,2.88709126,0.46936446,5913.015623,1899004.934
165,"36.8663757991, -76.3318847593",36.8663757991,-76.3318847593,189,1349,Navy Active,Elizabeth Rvr Channel,,VA,United States,Active,1.06628139,0.05748192,2184.631318,233040.5119
166,"38.8740586335, -76.9950963249",38.8740586335,-76.9950963249,202,1406,Navy Active,Naval Support Activity Wash,,DC,United States,Active,1.43172825,0.11862644,3066.233263,507639.4769
167,"30.1726207717, -85.7522787123",30.1726207717,-85.7522787123,232,1529,Navy Active,Naval Support Activity Panama City,,FL,United States,Active,7.04826222,1.0245731,13404.78101,3562399.497
168,"36.2384449698, -115.135834801",36.2384449698,-115.135834801,258,1709,AF Active,Nellis Annex,,NV,United States,Active,0.64412064,0.02516764,1329.1438,100402.308
169,"38.8051681105, -76.8744692983",38.8051681105,-76.8744692983,288,2454,AF Active,JB Andrews,Joint Base Andrews,MD,United States,Active,10.6363054,6.87972183,22642.68403,29383976.07
170,"38.8058114757, -104.519907537",38.8058114757,-104.519907537,308,2524,AF Active,Schriever AFB,,CO,United States,Active,11.66857618,8.47225658,24924.81467,36186097.04
171,"32.9127968927, -79.983267572",32.9127968927,-79.983267572,317,2555,AF Active,Charleston Defense Fuel Support Point,Joint Base Charleston,SC,United States,Active,1.37824709,0.06946084,2711.046893,255975.3731
172,"33.2559459604, -79.9889000764",33.2559459604,-79.9889000764,319,2557,AF Active,Joint Base Charleston Short Stay,Joint Base Charleston,SC,United States,Active,2.12930988,0.09612861,4222.517421,356998.0184
173,"32.4070003775, -86.2462388765",32.4070003775,-86.2462388765,322,2564,AF Active,Maxwell AFB Gunter Annex,,AL,United States,Active,6.02781658,0.59023271,11866.97005,2150856.986
174,"45.0843936284, -83.5700561745",45.0843936284,-83.5700561745,344,2769,AF Guard,Alpena County Regional Airport,,MI,United States,Active,5.81985922,0.85512122,13608.61401,4442562.661
175,"38.9609025845, -95.681207501",38.9609025845,-95.681207501,352,2787,AF Guard,Forbes Field ANG,,KS,United States,Active,2.61955479,0.27333547,5569.936849,1172504.252
176,"42.1604107875, -121.744216355",42.1604107875,-121.744216355,361,2826,AF Guard,Kingsley Field Cantonement Site 1,,OR,United States,Active,3.28800642,0.24886542,7368.159445,1173829.318
177,"36.1109974019, -86.6749742271",36.1109974019,-86.6749742271,371,2852,AF Guard,Nashville IAP,,TN,United States,Active,1.5909501,0.13740321,3247.633587,546386.8255
178,"32.778187703, -97.458544842",32.778187703,-97.458544842,470,3461,Army Guard,NG Fort Worth - Shoreview,,TX,United States,Active,1.80601272,0.12970376,3570.458284,476546.2052
179,"39.0513458097, -85.5247386919",39.0513458097,-85.5247386919,502,3855,Army Guard,NG Muscatatuck Urban Training Center,,IN,United States,Active,6.72174385,1.50150396,14469.19821,6457379.539
180,"46.626145715, -112.146444058",46.626145715,-112.146444058,510,3927,Army Guard,NG MTA Ft Wm Henry Harrison,,MT,United States,Active,21.55054196,10.25194574,52091.06792,56277989.69
181,"42.5489411722, -71.584497782",42.5489411722,-71.584497782,515,3940,Army Guard,NG Ayer,,MA,United States,Active,1.38868892,0.10220823,3159.356269,488041.582
182,"39.6732925118, -92.5020276292",39.6732925118,-92.5020276292,534,4237,Army Guard,NG Macon TS,,MO,United States,Active,22.09688508,4.80757307,47526.63454,21043956.87
183,"36.4213309591, -82.4887633022",36.4213309591,-82.4887633022,537,4355,Army Guard,NG Johnson City Gray,,TN,United States,Active,1.6389087,0.16765596,3378.829184,671956.4011
184,"35.6603704603, -95.3735309528",35.6603704603,-95.3735309528,546,4534,Army Guard,NG Muskogee AFRC,,OK,United States,Active,1.45846706,0.09100438,2941.400544,357820.7285
185,"37.0367527263, -77.9093172808",37.0367527263,-77.9093172808,581,4959,Army Guard,NG Fort Pickett ARNG MTC,,VA,United States,Active,64.16128108,64.30688439,133022.2547,261868638.2
186,"30.5064032466, -86.9567087641",30.5064032466,-86.9567087641,643,5550,Navy Active,NOLF Choctaw,,FL,United States,Active,7.86917189,2.26449666,14973.62363,7926900.28
187,"31.4156644398, -87.0439393588",31.4156644398,-87.0439393588,644,5551,Navy Active,NOLF Evergreen,,AL,United States,Active,6.50657585,0.69424386,12591.25426,2476463.63
188,"35.9342694303, -117.643911309",35.9342694303,-117.643911309,697,5742,Navy Active,NAWS China Lake,,CA,United States,Active,178.2997675,957.4671923,363239.2109,3790541155.0
189,"31.2156853581, -97.7370319242",31.2156853581,-97.7370319242,707,5787,Army Active,Fort Hood,,TX,United States,Active,160.7433815,342.6954915,310088.3283,1217315386.0
190,"33.922334237, -84.5270544482",33.922334237,-84.5270544482,733,5974,AF Active,Air Force Plant 6,,GA,United States,Active,7.6527283,1.18394937,15268.25296,4464703.644
191,"30.7934587256, -81.5333259382",30.7934587256,-81.5333259382,744,6001,Navy Active,Subase Kings Bay GA,,GA,United States,Active,25.59655739,22.11571068,48884.2153,77872711.71
192,"39.4222968339, -118.704557143",39.4222968339,-118.704557143,753,6060,Navy Active,NAS Fallon NV,,NV,United States,Active,22.06630679,13.30250948,47361.10842,57812079.73
193,"20.0318843522, -155.829966763",20.0318843522,-155.829966763,63,177,Army Active,Kawaihae Mil Reserve,,HI,United States,Active,2.68212787,0.03805322,4607.015719,112234.7886
194,"38.7084767137, -77.1565160328",38.7084767137,-77.1565160328,83,601,Army Active,Fort Belvoir,,VA,United States,Active,28.7203872,13.00441116,60969.40817,55394071.02
195,"38.8411900749, -86.8124514998",38.8411900749,-86.8124514998,199,1383,Navy Active,Naval Support Activity Crane,,IN,United States,Active,66.85914639,96.85457877,143070.9726,414091330.9
196,"13.3594268458, 144.692281863",13.3594268458,144.692281863,217,1439,Navy Active,Naval Magazine,Joint Region Marianas,GU,Guam,Active,18.03170231,13.49802508,29423.34162,37153812.89
197,"35.4191853794, -97.3929293521",35.4191853794,-97.3929293521,254,1697,AF Active,Tinker AFB,,OK,United States,Active,18.41947701,6.94229693,37387.25917,27134323.48
198,"44.1331953443, -103.090999951",44.1331953443,-103.090999951,280,1820,AF Active,Ellsworth AFB Site 2,,SD,United States,Active,9.40315679,2.00127812,21780.71889,10063721.48
199,"25.4944981242, -80.3914944068",25.4944981242,-80.3914944068,304,2518,AF Reserve,Homestead ARB,,FL,United States,Active,13.02372709,4.60854128,23588.89556,14712423.34
200,"29.3687556968, -98.6650123488",29.3687556968,-98.6650123488,328,2584,AF Active,Lackland Training Annex,Joint Base San Antonio,TX,United States,Active,10.01285806,6.20617017,18855.24771,21238465.92
201,"64.768242806, -146.889492296",64.768242806,-146.889492296,340,2663,AF Active,Yukon Weapons Range,,AK,United States,Active,27.83782608,34.78530348,101734.7334,493808725.2
202,"30.4863923135, -81.7054402836",30.4863923135,-81.7054402836,359,2819,AF Guard,Jacksonville IAP,,FL,United States,Active,3.48761262,0.53484249,6698.84271,1871460.26
203,"40.8116650292, -82.5179560357",40.8116650292,-82.5179560357,364,2836,AF Guard,Site 1 Cantonement Area,,OH,United States,Active,2.29287661,0.11022888,5042.60232,498869.4515
204,"39.3317978625, -76.4150756624",39.3317978625,-76.4150756624,365,2837,AF Guard,Martin State Airport,,MD,United States,Active,2.79530963,0.27366956,5996.316514,1186354.991
205,"40.7896351662, -111.956659778",40.7896351662,-111.956659778,381,2871,AF Guard,Salt Lake City IAP,,UT,United States,Active,2.10467974,0.21874313,4558.360106,989331.3487
206,"30.2011201324, -91.1289504931",30.2011201324,-91.1289504931,462,3367,Army Guard,NG Carville Gillis Long Center,,LA,United States,Active,3.02134805,0.55599906,5730.987816,1934301.352
207,"37.2532754828, -93.3909578934",37.2532754828,-93.3909578934,467,3434,Army Guard,NG Springfield AVCRAD (New),,MO,United States,Active,1.69441782,0.16758983,3530.155195,686341.7586
208,"61.6030503345, -149.37484979",61.6030503345,-149.37484979,471,3464,Army Guard,NG Alcantra Armory Complex,,AK,United States,Active,3.02871493,0.50008399,10131.42926,5705637.735
209,"44.714336076, -123.270695898",44.714336076,-123.270695898,506,3891,Army Guard,NG Camp Adair Corvallis,,OR,United States,Active,3.53887273,0.82438456,8291.283503,4228533.54
210,"21.3189917251, -158.062484829",21.3189917251,-158.062484829,590,5115,Army Guard,NG Kalaeloa,,HI,United States,Active,3.28122554,0.27013821,5702.15672,810216.4737
211,"21.3735152684, -157.937987691",21.3735152684,-157.937987691,609,5398,Navy Active,Aiea,Joint Base Pearl Harbor - Hickam,HI,United States,Active,4.24991052,0.18263595,7389.107391,548175.4601
212,"21.3388777428, -157.995139279",21.3388777428,-157.995139279,610,5405,Navy Active,Ewa,Joint Base Pearl Harbor - Hickam,HI,United States,Active,15.95191438,4.88214868,27726.00148,14646773.32
213,"36.243764679, -119.883529044",36.243764679,-119.883529044,640,5535,Navy Active,Sewage Evaporation Pond,,CA,United States,Active,3.59413662,0.67341027,7450.282932,2686838.15
214,"30.9725276772, -83.1646930406",30.9725276772,-83.1646930406,728,5940,AF Active,Moody AFB,,GA,United States,Active,23.41130784,16.82885422,45019.8119,59476505.21
215,"31.122537386, -85.9790965172",31.122537386,-85.9790965172,38,81,Army Active,Tac X Stagefield AL,,AL,United States,Active,1.68250287,0.07945462,3234.799874,281687.0809
216,"47.0544740533, -122.552700903",47.0544740533,-122.552700903,41,92,Army Active,Fort Lewis,Joint Base Lewis - McChord,WA,United States,Active,119.6952361,108.7280224,290888.1206,606394836.1
217,"32.0096565094, -81.1535601851",32.0096565094,-81.1535601851,98,657,Army Active,Hunter Army Airfield,,GA,United States,Active,13.99191536,8.46658284,27346.92586,30586712.24
218,"38.9584020247, -110.096989229",38.9584020247,-110.096989229,130,1013,Army Active,Green River Test Complex UT,,UT,United States,Inactive,28.98163164,6.27801514,61965.47184,26929083.67
219,"13.4015824973, 144.67867992",13.4015824973,144.67867992,216,1438,Navy Active,Apra Heights,Joint Region Marianas,GU,Guam,Active,1.95692886,0.10881597,3205.940471,299623.0534
220,"13.5080101985, 144.865759041",13.5080101985,144.865759041,218,1446,Navy Active,Andy South,Joint Region Marianas,GU,Guam,Active,10.4929058,3.00182106,17064.92171,8272728.961
221,"48.1237034582, -122.171056043",48.1237034582,-122.171056043,226,1488,Navy Active,Marysville WA,,WA,United States,Active,1.12290828,0.08140462,2761.575631,472824.2291
222,"29.1183865271, -100.47229345",29.1183865271,-100.47229345,287,2450,AF Active,Laughlin AFB Aux 1,,TX,United States,Active,4.00040491,0.62588742,7530.216794,2131401.619
223,"32.9629279333, -79.9635724771",32.9629279333,-79.9635724771,318,2556,AF Active,Joint Base Charleston Naval Weapons Station,Joint Base Charleston,SC,United States,Active,77.84501672,26.43353981,153076.8746,97521241.14
224,"33.538406301, -112.321762273",33.538406301,-112.321762273,335,2600,AF Active,Luke Waste Annex,,AZ,United States,Active,0.93154291,0.05695777,1846.871508,212894.0902
225,"47.4765456036, -111.364979591",47.4765456036,-111.364979591,356,2811,AF Guard,Great Falls IAP,,MT,United States,Active,2.26656673,0.20885517,5536.050297,1183414.259
226,"46.913722408, -96.8044644308",46.913722408,-96.8044644308,358,2817,AF Guard,Hector IAP,,ND,United States,Active,3.62269995,0.39879297,8766.727277,2212524.317
227,"41.501405282, -74.0843453548",41.501405282,-74.0843453548,390,2890,AF Guard,Stewart IAP,,NY,United States,Active,2.74601337,0.40548721,6103.843495,1873879.451
228,"44.4744278549, -73.1478968168",44.4744278549,-73.1478968168,412,2934,AF Guard,Burlington IAP,,VT,United States,Active,4.0860007,0.38757946,9538.635615,1971763.491
229,"29.8846193966, -98.2193812601",29.8846193966,-98.2193812601,423,2954,AF Active,Canyon Lake Recreation Annex,Joint Base San Antonio,TX,United States,Active,3.21804597,0.59896811,6076.769533,2070648.862
230,"41.81021516, -93.7813025881",41.81021516,-93.7813025881,444,3233,Army Guard,NG Camp Dodge Johnston TS,,IA,United States,Active,213.5507425,51.6553432,475818.9123,240999560.8
231,"40.4359467182, -76.6296904585",40.4359467182,-76.6296904585,466,3415,Army Guard,NG Fort Indiantown Gap,,PA,United States,Active,41.43605759,26.99192652,90674.94675,120803594.2
232,"32.8648656985, -98.0295707976",32.8648656985,-98.0295707976,485,3677,Army Guard,NG Fort Wolters,,TX,United States,Active,20.80763387,6.38768009,40812.0179,23514447.6
233,"31.4394196846, -92.2955559116",31.4394196846,-92.2955559116,513,3936,Army Guard,NG Beauregard Training Range,,LA,United States,Active,23.45963311,19.71133424,45334.82845,70348230.67
234,"35.3391521049, -120.703075007",35.3391521049,-120.703075007,521,4051,Army Guard,NG ITC Camp San Luis Obisbo,,CA,United States,Active,23.21851592,8.83557913,47193.46502,34466348.16
235,"18.0130410519, -66.5056515785",18.0130410519,-66.5056515785,530,4204,Army Guard,NG Ft Allen Rq 177,,PR,Puerto Rico,Active,8.72287317,1.1683838,14700.83735,3364306.956
236,"44.4717265822, -72.896538843",44.4717265822,-72.896538843,543,4497,Army Guard,NG TS Ethan Allen Range,,VT,United States,Active,18.73483696,17.30767006,43784.06921,88042010.18
237,"30.4161868882, -89.062874432",30.4161868882,-89.062874432,553,4593,Army Guard,NG Gulfport AVCRAD,,MS,United States,Active,1.6492658,0.1044845,3129.928561,365080.4527
238,"30.2616699455, -97.2945537016",30.2616699455,-97.2945537016,560,4657,Army Guard,NG Camp Swift,,TX,United States,Active,20.24228567,18.31649555,38418.43493,63800068.44
239,"38.8448751542, -77.0147335466",38.8448751542,-77.0147335466,608,5397,Navy Active,JBAB Anacostia Bolling,Joint Base Anacostia - Bolling,DC,United States,Active,8.67190951,1.46695792,18230.4606,6272455.27
240,"21.3462993357, -157.922047733",21.3462993357,-157.922047733,612,5410,Navy Active,Honolulu,Joint Base Pearl Harbor - Hickam,HI,United States,Active,9.71707007,1.51992913,16890.45294,4560522.534
241,"29.8313631946, -90.0208667897",29.8313631946,-90.0208667897,632,5508,Navy Active,NAS JRB New Orleans LA,,LA,United States,Active,12.46143426,5.26857311,23632.18885,18194311.29
242,"30.6253166375, -87.1398275231",30.6253166375,-87.1398275231,648,5558,Navy Active,NOLF Spencer,,FL,United States,Active,3.89280542,0.99083217,7455.613608,3476848.514
243,"28.4282639805, -80.588426762",28.4282639805,-80.588426762,653,5587,Navy Active,NOTU Cape Canaveral,,FL,United States,Active,10.39312384,3.68880921,19416.60577,12399257.34
244,"45.72074181, -119.687435193",45.72074181,-119.687435193,736,5980,Navy Active,NAVWPNSYSTRAFAC Boardman,,OR,United States,Active,39.25145027,73.91080678,92706.55831,392674587.3
245,"47.9883156828, -122.223175004",47.9883156828,-122.223175004,754,6064,Navy Active,NAVSTA Everett WA,,WA,United States,Active,3.80854233,0.33639769,9388.26183,1943717.957
246,"48.3386378202, -122.661500903",48.3386378202,-122.661500903,769,6200,Navy Active,NAS Whidbey Island WA,,WA,United States,Active,17.15318918,6.51215007,42574.01684,38141844.4
247,"33.6531336371, -85.9692368218",33.6531336371,-85.9692368218,7,11,Army Active,Anniston Army Depot,,AL,United States,Active,23.96588335,24.34134505,47656.47815,91222066.36
248,"38.5587412041, -104.826768506",38.5587412041,-104.826768506,13,43,Army Active,Fort Carson,,CO,United States,Active,70.91682378,215.5272868,149422.0534,914283419.8
249,"37.1870774617, -80.5424873564",37.1870774617,-80.5424873564,108,687,Army Active,Radford AAP,,VA,United States,Active,20.31060637,6.29488563,42472.85023,25734942.88
250,"33.3119495462, -115.309239233",33.3119495462,-115.309239233,154,1163,MC Active,Choc Mt Air Gnry Rng,,CA,United States,Active,173.0082045,716.1630469,343531.1247,2663060112.0
251,"21.3835443747, -157.971379541",21.3835443747,-157.971379541,160,1234,MC Active,Pearl City Annex,,HI,United States,Active,0.90949865,0.04127455,1581.235362,123900.8612
252,"37.2159079687, -76.4860419602",37.2159079687,-76.4860419602,173,1295,Navy Active,Yorktown Fuel Depot,,VA,United States,Active,1.9129514,0.22694957,3977.684374,928523.9341
253,"40.422044168, -74.0704353876",40.422044168,-74.0704353876,176,1309,Navy Active,Waterfront,,NJ,United States,Active,2.72277215,0.15382455,5864.677177,688166.8244
254,"35.3479024962, -77.962577717",35.3479024962,-77.962577717,268,1788,AF Active,Seymour Johnson AFB,,NC,United States,Active,12.63219333,5.04956187,25730.92683,19701896.93
255,"42.1990993962, -72.5364984149",42.1990993962,-72.5364984149,300,2508,AF Reserve,Westover ARB,,MA,United States,Active,11.89019596,3.73008144,26639.53755,17615126.36
256,"52.721036906, 174.107140074",52.721036906,174.107140074,343,2676,AF Active,Eareckson AS,,AK,United States,Active,16.96804743,5.45947725,46094.5991,38473957.12
257,"41.1620252547, -104.821289643",41.1620252547,-104.821289643,351,2785,AF Guard,Cheyenne Regional Airport,,WY,United States,Active,1.61995915,0.10400657,3602.938479,475703.2474
258,"35.3414611154, -94.3704265035",35.3414611154,-94.3704265035,353,2795,AF Guard,Fort Smith Map,,AR,United States,Active,1.74866712,0.18078243,3538.84306,705247.905
259,"35.025497959, -89.966549951",35.025497959,-89.966549951,368,2840,AF Guard,Memphis IAP,,TN,United States,Active,1.97503922,0.18570996,3966.440944,718910.1254
260,"39.8490796654, -83.8354791953",39.8490796654,-83.8354791953,389,2889,AF Guard,Springfield Beckley,,OH,United States,Active,2.73583697,0.20672733,5951.798198,909496.729
261,"33.5710203144, -86.7541411026",33.5710203144,-86.7541411026,411,2932,AF Guard,Birmingham Airport,,AL,United States,Active,4.14696304,0.21035001,8237.093281,786832.2903
262,"35.1948003007, -111.850594633",35.1948003007,-111.850594633,451,3277,Army Guard,NG Camp Navajo,,AZ,United States,Active,29.45875719,44.22871071,59818.71078,171922265.8
263,"25.9624299881, -80.3047964814",25.9624299881,-80.3047964814,493,3714,Army Guard,NG HMO3 (Snake Creek TS),,FL,United States,Active,2.99821052,0.49819885,5452.574919,1602891.342
264,"42.2994261787, -85.3177166165",42.2994261787,-85.3177166165,526,4154,Army Guard,NG CTC Fort Custer Trng Center,,MI,United States,Active,17.68327225,11.7231836,39902.9176,55537276.33
265,"44.0731899378, -103.30683687",44.0731899378,-103.30683687,599,5323,Army Guard,NG West Camp,,SD,United States,Active,5.04249235,1.19445672,11795.22372,5994844.407
266,"13.4739477757, 144.740245884",13.4739477757,144.740245884,668,5615,Navy Active,Naval Hospital,Joint Region Marianas,GU,Guam,Active,2.30391754,0.18812341,3697.415747,518303.7595
267,"29.3427718639, -98.4396992143",29.3427718639,-98.4396992143,713,5832,AF Active,Brooks AFB,,TX,United States,Active,5.92450829,2.04262546,11220.13788,6986642.355
268,"39.1265401339, -75.465256235",39.1265401339,-75.465256235,773,6216,AF Active,Dover AFB,,DE,United States,Active,14.01473535,4.26336397,29883.14924,18373846.82
269,"38.1180327475, -77.2759052325",38.1180327475,-77.2759052325,8,12,Army Active,Fort A P Hill,,VA,United States,Active,56.23083171,116.5807958,118382.1619,488607985.2
270,"41.1975381899, -75.4291099943",41.1975381899,-75.4291099943,45,97,Army Active,Tobyhanna Army Depot,,PA,United States,Active,7.00588776,2.27905895,15384.88709,10435042.57
271,"32.6453966733, -114.602240833",32.6453966733,-114.602240833,152,1154,MC Active,MCAS Yuma,,AZ,United States,Active,14.75257572,7.42796297,28849.24445,27210761.83
272,"36.8255463263, -76.289264919",36.8255463263,-76.289264919,169,1289,Navy Active,NNSY St Helena,,VA,United States,Active,0.59946344,0.01914829,1248.571233,77547.71835
273,"37.2849658658, -76.6194826812",37.2849658658,-76.6194826812,179,1315,Navy Active,Cheatham Annex,,VA,United States,Active,18.5978649,3.58828419,38988.59129,14707549.2
274,"37.8861451185, -75.4686379534",37.8861451185,-75.4686379534,191,1354,Navy Active,JEBLCFS Wallops Island VA,Joint Expeditionary Base Little Creek - Fort Story,VA,United States,Active,37.07550981,10.10759615,77925.90133,42097627.54
275,"42.3003113359, -87.8539702937",42.3003113359,-87.8539702937,198,1381,Navy Active,GL Camp JPJ,,IL,United States,Active,2.36192457,0.07713146,5312.919769,365412.005
276,"30.3527067706, -87.3063356676",30.3527067706,-87.3063356676,220,1449,Navy Active,NAS Pensacola FL,,FL,United States,Active,25.50381109,8.50791146,48677.11899,29689275.66
277,"30.4028604162, -87.2900851792",30.4028604162,-87.2900851792,221,1457,Navy Active,Corry Station,,FL,United States,Active,4.38100437,0.91986194,8408.615522,3213211.619
278,"64.2881605755, -149.190714695",64.2881605755,-149.190714695,272,1797,AF Active,Clear Air Force Station,,AK,United States,Active,19.99637984,17.9384353,72217.73738,245806092.5
279,"43.5732338069, -96.7415313205",43.5732338069,-96.7415313205,386,2884,AF Guard,Joe Foss Field,,SD,United States,Active,1.98740466,0.14433221,4577.593125,712421.3597
280,"41.5443605816, -93.6660689484",41.5443605816,-93.6660689484,398,2904,AF Guard,Des Moines IAP,,IA,United States,Active,2.6823807,0.25286069,5958.040595,1170091.612
281,"39.406011562, -77.9845939323",39.406011562,-77.9845939323,401,2912,AF Guard,EWVRA Shepherd Field,,WV,United States,Active,4.96366638,0.4879501,10746.24383,2119656.613
282,"41.9420819916, -72.665875741",41.9420819916,-72.665875741,434,3131,Army Guard,NG Camp Hartell,,CT,United States,Active,1.44216235,0.09039005,3239.406886,423445.8163
283,"29.4318157845, -98.3795077904",29.4318157845,-98.3795077904,438,3168,Army Guard,NG Martindale - AASF,,TX,United States,Active,2.37904298,0.32936286,4488.04508,1128506.545
284,"41.286945521, -88.6795863034",41.286945521,-88.6795863034,445,3237,Army Guard,NG Marseilles (MTA Tng Area),,IL,United States,Active,10.69083675,4.46138328,23634.84836,20482832.74
285,"43.6687895015, -70.6637499429",43.6687895015,-70.6637499429,449,3250,Army Guard,NG Hollis Plains Training Site,,ME,United States,Active,3.48767224,0.64282798,7931.471202,3183053.352
286,"36.2956939177, -95.2921270779",36.2956939177,-95.2921270779,453,3322,Army Guard,NG Thunderbird Youth Academy,,OK,United States,Active,5.65304877,0.8262293,11684.28554,3300912.476
287,"33.7333873334, -85.7878345164",33.7333873334,-85.7878345164,455,3331,Army Guard,NG Fort McClellan ARNG Tng Center,,AL,United States,Active,5.8097707,0.79923366,11573.65154,3000765.679
288,"33.7108821376, -89.6859335176",33.7108821376,-89.6859335176,469,3440,Army Guard,NG CTA Camp Mccain,,MS,United States,Active,27.8469078,20.27045612,55390.01124,76066857.6
289,"41.3118240947, -73.9509046086",41.3118240947,-73.9509046086,522,4077,Army Guard,NG Camp Smith Tng Site,,NY,United States,Active,8.30072676,2.48001696,18392.38433,11394706.63
290,"13.5219204866, 144.81563688",13.5219204866,144.81563688,666,5612,Navy Active,Harmon,Joint Region Marianas,GU,Guam,Active,0.29969464,0.00540163,488.8994125,14888.08272
291,"32.6962020716, -117.245822433",32.6962020716,-117.245822433,670,5618,Navy Active,NAVBASE Point Loma,,CA,United States,Active,11.58325743,1.79191532,22533.37998,6571698.654
292,"13.5991888519, 144.895032191",13.5991888519,144.895032191,699,5749,Navy Active,NSA Andersen,Joint Region Marianas,GU,Guam,Active,27.02002561,24.08388864,43945.83992,66423261.6
293,"26.0918029314, -80.1100114622",26.0918029314,-80.1100114622,715,5865,Navy Active,Dania Beach (Lauderdale),,FL,United States,Active,0.62034361,0.01514858,1136.364331,48845.05899
294,"46.744530905, -120.165725249",46.744530905,-120.165725249,6,9,Army Active,Yakima Training Center,Joint Base Lewis - McChord,WA,United States,Active,119.3062295,511.1210634,288699.2392,2818078804.0
295,"31.3626015042, -85.8489813304",31.3626015042,-85.8489813304,35,75,Army Active,Shell Basefield AL,,AL,United States,Active,2.35801524,0.38200326,4569.609924,1361128.614
296,"39.1046170939, -76.7454436487",39.1046170939,-76.7454436487,96,652,Army Active,Fort George G Meade,,MD,United States,Active,21.749239,7.30130972,46658.46152,31447105.54
297,"41.404179439, -75.6659088025",41.404179439,-75.6659088025,107,680,Army Active,Scranton AAP,,PA,United States,Active,0.61595369,0.02303403,1363.364018,106130.9017
298,"42.7198249748, -73.7081190476",42.7198249748,-73.7081190476,110,872,Army Active,Watervliet Arsenal,,NY,United States,Active,2.72594444,0.20726435,6153.835073,995090.8509
299,"31.5508944243, -84.0558826773",31.5508944243,-84.0558826773,133,1076,MC Active,MCLB Albany,,GA,United States,Active,17.12342374,5.28920874,33649.91305,18920820.18
300,"34.9120752465, -76.8854246963",34.9120752465,-76.8854246963,141,1117,MC Active,MCAS Cherry Point,,NC,United States,Active,53.86377756,17.75227136,108891.0952,68533646.58
301,"32.7293500339, -117.220992794",32.7293500339,-117.220992794,149,1145,MC Active,Former NTC,,CA,United States,Active,1.7148091,0.11175495,3364.789781,410154.3268
302,"43.0790804004, -73.8207400706",43.0790804004,-73.8207400706,190,1352,Navy Active,NSA Saratoga Springs NY,,NY,United States,Active,0.83752619,0.03516218,1912.019741,170780.6252
303,"38.8719172793, -77.0547227251",38.8719172793,-77.0547227251,241,1639,WHS,Pentagon Building Site,,VA,United States,Active,4.98638,0.34395351,10583.16386,1471795.504
304,"61.2697994083, -149.811188858",61.2697994083,-149.811188858,339,2637,AF Active,Elmendorf AFB,Joint Base Elmendorf - Richardson,AK,United States,Active,19.79301824,17.07431075,65893.13408,190701058.7
305,"36.766535122, -119.71000318",36.766535122,-119.71000318,355,2810,AF Guard,Fresno Yosemite International ANG,,CA,United States,Active,1.76514843,0.12051507,3706.863079,487323.6663
306,"38.5912194524, -90.2083428154",38.5912194524,-90.2083428154,409,2928,AF Active,St Louis Air Force Station,,MO,United States,Active,1.21329635,0.04871351,2572.988073,206828.8005
307,"39.80503102, -82.9514625254",39.80503102,-82.9514625254,472,3492,Army Guard,NG Rickenbacker (MTA),,OH,United States,Active,1.79870376,0.1939832,3881.559273,852333.3443
308,"45.412447609, -122.557961254",45.412447609,-122.557961254,508,3893,Army Guard,NG Camp Withycombe Clackamas,,OR,United States,Active,2.04114855,0.12609311,4905.092931,662649.505
309,"33.7912112939, -118.052226791",33.7912112939,-118.052226791,527,4159,Army Guard,NG TS AFRC Los Alamitos,,CA,United States,Active,6.71506292,2.06314156,13408.57288,7756557.537
310,"46.2740762237, -111.579816882",46.2740762237,-111.579816882,535,4336,Army Guard,NG MTA Limestone Hills,,MT,United States,Active,29.45076375,33.30838897,70422.01925,180512631.5
311,"44.6874716798, -84.7298829884",44.6874716798,-84.7298829884,542,4459,Army Guard,NG MTC-H Camp Grayling,,MI,United States,Active,283.5816979,228.7922057,661581.1917,1172455228.0
312,"39.0201681146, -95.6832394397",39.0201681146,-95.6832394397,592,5124,Army Guard,NG Kansas,,KS,United States,Active,1.5430536,0.088286,3277.790208,379349.008
313,"21.3620293704, -157.988002333",21.3620293704,-157.988002333,616,5428,Navy Active,Waipahu,Joint Base Pearl Harbor - Hickam,HI,United States,Active,12.9657659,2.39339867,22540.55796,7182590.211
314,"24.5785674303, -81.7735965378",24.5785674303,-81.7735965378,635,5516,Navy Active,Dredgers Key-Sigsbee,,FL,United States,Active,4.61936781,0.56045205,8290.791378,1762967.867
315,"32.6757646692, -117.122748674",32.6757646692,-117.122748674,674,5645,Navy Active,NAVBASE San Diego CA,,CA,United States,Active,7.43617433,1.11234671,14482.66225,4077590.358
316,"13.5836144059, 144.844294742",13.5836144059,144.844294742,716,5869,Navy Active,Finegayan,Joint Region Marianas,GU,Guam,Active,10.0677551,3.76695892,16358.00963,10387893.38
317,"38.3744532716, -119.542277539",38.3744532716,-119.542277539,717,5876,MC Active,Bridgeport,,CA,United States,Active,64.03226584,96.71498927,135038.3121,408193494.5
318,"62.4083568593, -145.155004797",62.4083568593,-145.155004797,718,5881,AF Active,Haarp Research Station,Joint Base Elmendorf - Richardson,AK,United States,Active,13.17772301,8.47427815,45266.80806,101921288.2
319,"37.2494396184, -77.3347277202",37.2494396184,-77.3347277202,1,1,Army Active,Fort Lee,,VA,United States,Active,23.18682471,8.85401196,48133.85363,36256621.26
320,"40.6996401966, -84.1328894032",40.6996401966,-84.1328894032,101,660,Army Active,Us Army Joint Sys Mfg CtrLima,,OH,United States,Active,4.16320377,0.90958295,9159.268648,4102722.014
321,"32.7399583948, -96.9564403611",32.7399583948,-96.9564403611,109,810,Army Reserve,Grand Prairie Reserve Complex,,TX,United States,Active,1.48183545,0.11659727,2928.628759,428029.1504
322,"21.4396274449, -158.003109942",21.4396274449,-158.003109942,127,997,Army Active,Kipapa Ammo Storage Site,,HI,United States,Inactive,7.36203995,0.63257837,12805.30295,1900360.785
323,"36.9433080035, -76.3015136921",36.9433080035,-76.3015136921,201,1404,Navy Active,NAVSTA Norfolk VA,,VA,United States,Active,19.53021724,6.3444268,40552.415,25772712.6
324,"38.145841636, -76.4278909867",38.145841636,-76.4278909867,203,1408,Navy Active,Webster Field,,MD,United States,Active,9.33448735,1.51343387,19664.48355,6347841.435
325,"38.891840042, -123.546579136",38.891840042,-123.546579136,259,1714,AF Active,Point Arena Air Force Station,,CA,United States,Inactive,2.80732403,0.12517774,5992.812411,535942.2218
326,"33.9174086513, -84.5192362187",33.9174086513,-84.5192362187,276,1803,AF Reserve,Dobbins ARB,,GA,United States,Active,10.89297169,3.78261368,21685.11351,14262728.13
327,"33.6413120873, -88.4511187521",33.6413120873,-88.4511187521,326,2575,AF Active,Columbus AFB,,MS,United States,Active,11.96089694,6.8601769,23802.61459,25702325.68
328,"44.8175673815, -68.8298013821",44.8175673815,-68.8298013821,346,2777,AF Guard,Bangor IAP,,ME,United States,Active,4.81304066,0.42377862,11255.23045,2181404.001
329,"35.8114939421, -84.0036709533",35.8114939421,-84.0036709533,367,2839,AF Guard,McGhee Tyson Airport,,TN,United States,Active,4.81290706,0.56671413,9799.975253,2236667.866
330,"42.9410456217, -87.8879842837",42.9410456217,-87.8879842837,369,2843,AF Guard,Gen Mitchell IAP,,WI,United States,Active,1.59741204,0.10270726,3594.218991,496622.1532
331,"42.3152607726, -85.2517650226",42.3152607726,-85.2517650226,396,2899,AF Guard,W K Kellogg,,MI,United States,Active,3.00675032,0.21872001,6783.932166,1036678.605
332,"41.365115238, -72.2719883265",41.365115238,-72.2719883265,435,3132,Army Guard,NG Stones Ranch Military Res,,CT,United States,Active,14.0614345,2.91240409,30936.55596,13403129.67
333,"29.9610820259, -90.0054600369",29.9610820259,-90.0054600369,436,3146,Army Guard,NG Jackson Bks,,LA,United States,Active,4.08727224,0.18652636,7696.519993,645805.9706
334,"39.5789596414, -85.8110236465",39.5789596414,-85.8110236465,509,3899,Army Guard,NG Shelbyville,,IN,United States,Active,1.17582278,0.07214745,2558.248086,314952.0399
335,"41.1971787101, -81.0848343174",41.1971787101,-81.0848343174,523,4082,Army Guard,NG Camp Ravenna Joint Military Training Center,,OH,United States,Active,27.98837304,33.88266775,62734.74882,155136449.8
336,"43.9969533709, -92.431667564",43.9969533709,-92.431667564,549,4545,Army Guard,NG Rochester NGA and OMS 2,,MN,United States,Active,0.57179585,0.01782066,1336.324741,89210.46103
337,"43.2374990056, -78.9726913885",43.2374990056,-78.9726913885,565,4730,Army Guard,NG Youngstown Tng Site,,NY,United States,Active,4.61779927,1.34071889,10601.45543,6545360.213
338,"44.5098902146, -73.1635564756",44.5098902146,-73.1635564756,586,5010,Army Guard,NG Ethan Allen AFB MTA,,VT,United States,Active,4.73495996,1.02652087,11014.13051,5228568.991
339,"44.0801387023, -103.266957925",44.0801387023,-103.266957925,601,5356,Army Guard,NG Camp Rapid,,SD,United States,Active,1.45033491,0.12937848,3373.68494,649479.3251
340,"22.0390260692, -159.754233043",22.0390260692,-159.754233043,605,5366,Navy Active,Kamokala Ridge,,HI,United States,Active,1.75419217,0.13891071,3069.379362,420764.7847
341,"21.3365657616, -157.947911019",21.3365657616,-157.947911019,613,5411,Navy Active,JBPHH Pearl Harbor HI,Joint Base Pearl Harbor - Hickam,HI,United States,Active,26.44019343,5.53076205,45956.99901,16592072.73
342,"18.0962543996, -65.5122515814",18.0962543996,-65.5122515814,630,5503,Navy Active,Vieques West PR,,PR,Puerto Rico,Active,3.35333314,0.12581264,5636.646793,362611.7123
343,"24.564687961, -81.7912167283",24.564687961,-81.7912167283,639,5527,Navy Active,Trumbo Point Annex,,FL,United States,Active,4.09484789,0.20399029,7344.907962,641536.429
344,"33.9949571838, -119.633496836",33.9949571838,-119.633496836,683,5685,Navy Active,Santa Cruz Island,,CA,United States,Active,0.84067605,0.01240696,1695.376715,46866.30833
345,"13.517951387, 144.811096236",13.517951387,144.811096236,702,5755,Navy Active,Tumon Tank Farm,Joint Region Marianas,GU,Guam,Active,1.03263444,0.03768804,1697.961132,103873.0862
346,"37.7301830972, -121.896604083",37.7301830972,-121.896604083,16,49,Army Reserve,Parks Reserve Forces Tng Area,,CA,United States,Active,12.10233686,3.74509133,25372.59162,15532840.68
347,"31.1507181645, -85.7365895283",31.1507181645,-85.7365895283,31,70,Army Active,Highbluff Stagefield AL,,AL,United States,Active,1.61826363,0.14827059,3117.613817,525969.6512
348,"21.6554725925, -157.991699974",21.6554725925,-157.991699974,51,147,Army Active,Kahuku Tng Area,,HI,United States,Active,24.10885693,14.21697719,42025.74089,42835738.94
349,"19.4339227624, -155.274146853",19.4339227624,-155.274146853,64,178,Army Active,Kilauea Mil Reserve,,HI,United States,Active,1.15740786,0.0773326,1978.490045,226403.8548
350,"43.122804331, -87.9772820103",43.122804331,-87.9772820103,70,414,Army Reserve,W Silver Spring Complex,,WI,United States,Active,2.09568162,0.19706563,4746.971338,958493.9045
351,"40.2081935416, -76.8392842405",40.2081935416,-76.8392842405,77,576,Army Active,Defense Distrib Depot Susq,,PA,United States,Active,6.28513057,1.3104137,13694.93411,5825681.998
352,"39.4393426467, -77.4329802888",39.4393426467,-77.4329802888,89,638,Army Active,Fort Detrick,,MD,United States,Active,9.3707605,1.90590655,20180.47748,8287020.994
353,"42.4983892077, -71.6564168902",42.4983892077,-71.6564168902,92,644,Army Reserve,Devens Reserve Forces Tng Area,,MA,United States,Active,18.7805218,7.94792546,42241.94243,37890239.59
354,"39.8591031687, -86.023591834",39.8591031687,-86.023591834,116,946,Army Active,Fort Benjamin Harrison,,IN,United States,Inactive,1.96270333,0.10441299,4220.150127,459496.2119
355,"32.8768862606, -117.085904098",32.8768862606,-117.085904098,146,1141,MC Active,MCAS Miramar,,CA,United States,Active,44.19571243,35.28132876,87358.39097,129913014.1
356,"41.537007483, -71.3449081892",41.537007483,-71.3449081892,196,1370,Navy Active,Gould Island RI,,RI,United States,Active,0.84140173,0.01563502,1843.415269,72333.10725
357,"30.4703563325, -87.341464807",30.4703563325,-87.341464807,219,1448,Navy Active,Saufley Field,,FL,United States,Active,6.89690133,1.33100134,13139.95877,4655724.398
358,"32.4228638826, -99.8391523672",32.4228638826,-99.8391523672,278,1817,AF Active,Dyess AFB,,TX,United States,Active,14.97703127,8.38591111,29246.6618,30569582.45
359,"36.337985538, -97.9145208117",36.337985538,-97.9145208117,330,2587,AF Active,Vance AFB,,OK,United States,Active,12.95639316,5.32526778,26533.14276,21298201.31
360,"42.3949424324, -96.3728939608",42.3949424324,-96.3728939608,385,2880,AF Guard,Sioux Gateway Airport (ANG),,IA,United States,Active,1.85965053,0.11980777,4152.4082,569291.382
361,"40.6623266748, -89.7047451161",40.6623266748,-89.7047451161,400,2910,AF Guard,General Wayne A Downing Peoria IAP,,IL,United States,Active,3.62388193,0.5651211,7939.613803,2546083.091
362,"41.6154323015, -71.4990309697",41.6154323015,-71.4990309697,429,3080,Army Guard,NG Camp Fogarty Tng Site,,RI,United States,Active,4.12075797,0.58829444,9115.691335,2728225.202
363,"30.1763045639, -97.6720949612",30.1763045639,-97.6720949612,437,3166,Army Guard,NG Bergstrom - (Abia),,TX,United States,Active,1.17456478,0.0937977,2236.257309,326154.183
364,"44.2000240894, -121.116641902",44.2000240894,-121.116641902,442,3183,Army Guard,NG Biak Training Center COUTES,,OR,United States,Active,52.04252063,44.69652295,119768.5129,225283440.0
365,"36.0990427201, -86.7588114945",36.0990427201,-86.7588114945,459,3346,Army Guard,NG Nashville,,TN,United States,Active,1.74417681,0.10290826,3551.600598,409092.6967
366,"33.4680085999, -111.961734255",33.4680085999,-111.961734255,481,3580,Army Guard,NG Papago Military Reservation,,AZ,United States,Active,4.50199573,0.6099293,9017.148447,2276084.212
367,"39.7443784632, -86.2281648634",39.7443784632,-86.2281648634,505,3862,Army Guard,NG Indianapolis 38 ID,,IN,United States,Active,1.0507801,0.07313912,2274.337911,320805.244
368,"39.4053782409, -79.6650809272",39.4053782409,-79.6650809272,583,4971,Army Guard,NG CTC Camp Dawson-Kingwood,,WV,United States,Active,42.37537949,12.50940937,90636.0269,54338863.43
369,"31.0485248017, -87.0645146284",31.0485248017,-87.0645146284,642,5549,Navy Active,NOLF Brewton,,AL,United States,Active,5.11835413,1.02628265,9867.39675,3632830.132
370,"32.6713189664, -117.167654101",32.6713189664,-117.167654101,657,5596,Navy Active,Amphib Base Coronado West,,CA,United States,Active,1.59537089,0.11352591,3123.03301,416116.3449
371,"32.7262714976, -117.145036279",32.7262714976,-117.145036279,675,5648,Navy Active,Balboa Hospital,,CA,United States,Active,1.59046014,0.11864602,3090.359201,435414.8446
372,"33.7504659919, -118.064188826",33.7504659919,-118.064188826,694,5734,Navy Active,NAVWPNSTA Seal Beach,,CA,United States,Active,16.0394274,7.48513923,31881.8089,28114480.47
373,"33.9237676683, -117.569462918",33.9237676683,-117.569462918,696,5740,Navy Active,Norco,,CA,United States,Active,3.6019808,0.38092326,7172.199425,1436522.515
374,"35.5147864004, -117.141406945",35.5147864004,-117.141406945,698,5747,Navy Active,Randsburg Wash Area,,CA,United States,Active,149.0475541,826.1525666,302230.0533,3236464627.0
375,"43.1269235478, -75.5912449791",43.1269235478,-75.5912449791,711,5828,AF Active,Verona Defense Fuel Support Point,,NY,United States,Active,0.56138468,0.02040583,1276.241209,99263.83353
376,"41.1707420451, -104.860338183",41.1707420451,-104.860338183,722,5911,AF Active,F E Warren AFB,,WY,United States,Active,18.97551999,9.64543887,41621.22382,44127671.82
377,"71.3217290437, -156.647955307",71.3217290437,-156.647955307,752,6054,Navy Active,NARL Barrow Camp Tr1,,AK,United States,Active,8.170828,0.98578627,37334.29958,24761947.42
378,"42.3887282099, -96.3753394484",42.3887282099,-96.3753394484,759,6158,AF Guard,Sioux Gateway Airport (ANG),,IA,United States,Active,0.74377452,0.0238947,1648.863462,113518.076
379,"38.0893373204, -92.6050226881",38.0893373204,-92.6050226881,17,50,Army Active,Lake Of The Ozarks Recreation,,MO,United States,Active,3.84473544,0.50059651,8074.671523,2096437.176
380,"21.3459798367, -157.883423329",21.3459798367,-157.883423329,58,169,Army Active,Fort Shafter,,HI,United States,Active,7.01601646,0.92213281,12195.34763,2766721.243
381,"34.8948517394, -76.3494185567",34.8948517394,-76.3494185567,139,1113,MC Active,OLF Atlantic,,NC,United States,Active,8.00600134,2.29638632,16164.85726,8861554.609
382,"33.3617631238, -117.423573571",33.3617631238,-117.423573571,148,1144,MC Active,MCB Camp Pendleton,,CA,United States,Active,75.13581087,196.7732822,148653.881,732527129.7
383,"48.2942162716, -122.600904083",48.2942162716,-122.600904083,229,1514,Navy Active,Sea Plane Base,,WA,United States,Active,16.67040945,4.91809346,41450.9564,28755569.43
384,"36.7367977571, -98.1206530872",36.7367977571,-98.1206530872,331,2588,AF Active,Kegelman Air Force Auxiliary Field,,OK,United States,Active,7.88828531,1.9189984,16116.34127,7753845.58
385,"40.4853906277, -80.2128717533",40.4853906277,-80.2128717533,375,2856,AF Guard,Pittsburgh IAP (ANG),,PA,United States,Active,4.00452124,0.45177954,8738.435998,2024920.334
386,"38.698673015, -97.8316970673",38.698673015,-97.8316970673,388,2887,AF Guard,Smoky Hill ANG Range,,KS,United States,Active,38.01773609,53.03493845,80621.15858,225831464.3
387,"29.5647013744, -97.9056493003",29.5647013744,-97.9056493003,420,2951,AF Active,Seguin Auxiliary Field,Joint Base San Antonio,TX,United States,Active,9.50407424,1.49755612,17999.20396,5144502.178
388,"43.2274955645, -116.138977329",43.2274955645,-116.138977329,440,3172,Army Guard,NG Orchard Combat Training Center,,ID,United States,Active,72.12018494,224.0420562,164590.1819,1093451944.0
389,"35.8091728617, -78.7120731248",35.8091728617,-78.7120731248,501,3839,Army Guard,NG Raleigh,,NC,United States,Active,2.02012792,0.12619144,4136.553887,498013.8768
390,"38.5515266427, -92.0684326746",38.5515266427,-92.0684326746,532,4234,Army Guard,NG TS Ike Skelton Jefferson City,,MO,United States,Active,3.87773452,0.73617051,8336.018925,3122228.933
391,"40.9618173985, -98.2987920709",40.9618173985,-98.2987920709,552,4570,Army Guard,NG Grand Island AASF/RC,,NE,United States,Active,1.04771756,0.07795223,2298.923599,354388.438
392,"40.2697852903, -74.7446975393",40.2697852903,-74.7446975393,559,4651,Army Guard,NG Lawrenceville,,NJ,United States,Active,1.61750645,0.12211461,3504.638282,543861.0765
393,"32.5969675488, -117.128170944",32.5969675488,-117.128170944,603,5361,Navy Active,Silver Strand South,,CA,United States,Active,4.25677531,0.85815758,8275.453479,3140311.322
394,"21.5204386438, -158.005639333",21.5204386438,-158.005639333,615,5424,Navy Active,Wahiawa,Joint Base Pearl Harbor - Hickam,HI,United States,Active,7.11309558,1.07307736,12384.85177,3227227.351
395,"13.3106836826, 144.736799463",13.3106836826,144.736799463,664,5610,Navy Active,Dandan,Joint Region Marianas,GU,Guam,Active,2.03463347,0.24844873,3307.200322,683591.0122
396,"32.6677774858, -117.240517357",32.6677774858,-117.240517357,673,5642,Navy Active,SPAWARS South,,CA,United States,Active,1.42592048,0.07760893,2795.917591,284443.7452
397,"43.2214961419, -75.4097019981",43.2214961419,-75.4097019981,712,5831,AF Active,Rome Laboratory,,NY,United States,Active,3.49336003,0.13098396,7971.688355,639130.857
398,"39.3897332632, -76.2184808653",39.3897332632,-76.2184808653,774,6225,Army Active,Aberdeen Proving Ground,,MD,United States,Active,56.0093554,112.7625871,120246.8803,489661859.1
399,"31.3863190917, -85.9722716491",31.3863190917,-85.9722716491,27,66,Army Active,Brown 4b Stagefield AL,,AL,United States,Active,1.98403965,0.25504468,3834.680625,909216.3744
400,"31.2285844723, -85.5587094717",31.2285844723,-85.5587094717,39,82,Army Active,Toth Stagefield AL,,AL,United States,Active,1.76953087,0.19007856,3424.921335,675373.8705
401,"21.4956034912, -158.053239766",21.4956034912,-158.053239766,53,150,Army Active,Schofield Barracks Military Reservation,,HI,United States,Active,43.85006229,23.4489528,76346.84512,70497762.26
402,"40.6089967598, -74.0294500589",40.6089967598,-74.0294500589,95,647,Army Active,Fort Hamilton,,NY,United States,Active,3.24169841,0.27630773,7098.4658,1242979.116
403,"40.7920025926, -91.2456158021",40.7920025926,-91.2456158021,100,659,Army Active,Iowa AAP,,IA,United States,Active,25.59289443,33.62462485,56339.58259,152088474.6
404,"34.69285056, -77.0286825557",34.69285056,-77.0286825557,138,1109,MC Active,ALF Bogue,,NC,United States,Active,7.99680624,1.41145676,16153.77292,5420314.1
405,"40.253857198, -74.1608483411",40.253857198,-74.1608483411,177,1311,Navy Active,Naval Weapons Station Earle NJ,,NJ,United States,Active,23.79425256,13.36624457,51504.02656,59501630.48
406,"36.9250152893, -76.2996109684",36.9250152893,-76.2996109684,180,1316,Navy Active,NAVSUPPACT Hampton Roads VA,,VA,United States,Active,5.38171186,1.22247271,11304.98868,4963638.545
407,"40.0413030722, -75.094581272",40.0413030722,-75.094581272,184,1324,Navy Active,Det Philadelphia PA,,PA,United States,Active,2.08669546,0.21074834,4503.834985,932365.9404
408,"13.4286325755, 144.653464077",13.4286325755,144.653464077,214,1434,Navy Active,NAVBASE Guam,Joint Region Marianas,GU,Guam,Active,24.05332264,5.25359859,39128.84493,14468915.97
409,"32.5531914123, -88.5695131272",32.5531914123,-88.5695131272,233,1530,Navy Active,NAS Meridian MS,,MS,United States,Active,32.75334077,12.63878888,64140.07592,46205489.32
410,"35.3314242265, -89.8707837951",35.3314242265,-89.8707837951,238,1557,Navy Active,NAVSUPPACT Midsouth Memphis TN,,TN,United States,Active,6.41407356,1.62297726,13041.32814,6329810.669
411,"30.5759376196, -86.5283733486",30.5759376196,-86.5283733486,244,1655,AF Active,Eglin AFB (Eglin Main and Reservation),,FL,United States,Active,235.0262584,703.1183461,450616.5975,2464772939.0
412,"41.9349940506, -72.7012504094",41.9349940506,-72.7012504094,348,2779,AF Guard,Bradley IAP,,CT,United States,Active,2.37862622,0.23060368,5297.109225,1080071.565
413,"39.6865096946, -75.5975562186",39.6865096946,-75.5975562186,372,2853,AF Guard,New Castle Airport,,DE,United States,Active,2.13090153,0.12085951,4552.700619,529234.0545
414,"43.0890854907, -70.8187307657",43.0890854907,-70.8187307657,374,2855,AF Guard,Pease ANGB,,NH,United States,Active,2.9033002,0.33578116,6578.306123,1631400.739
415,"32.1264203859, -81.1897565604",32.1264203859,-81.1897565604,382,2875,AF Guard,Savannah/Hilton Head IAP,,GA,United States,Active,4.68716859,0.32225043,9167.955752,1167138.171
416,"27.8436083654, -82.5010227484",27.8436083654,-82.5010227484,406,2922,AF Active,MacDill AFB,,FL,United States,Active,14.38182786,8.90105922,26699.47462,29597867.63
417,"36.8915192187, -90.2799665184",36.8915192187,-90.2799665184,533,4236,Army Guard,NG TS Clark Natl Forest Wapp,,MO,United States,Active,9.67342612,3.1987163,20174.41421,12976560.68
418,"44.7477484831, -93.1276054375",44.7477484831,-93.1276054375,550,4546,Army Guard,NG Rosemount NG Armory,,MN,United States,Active,0.56147155,0.01875397,1306.189045,96303.86971
419,"32.8385569471, -115.258177991",32.8385569471,-115.258177991,619,5449,Navy Active,Holtville Carrier LS,,CA,United States,Active,19.49433105,1.89598568,38914.50629,6975426.014
420,"29.9488308912, -90.0328996808",29.9488308912,-90.0328996808,633,5511,Navy Active,West Bank,,LA,United States,Active,3.06635542,0.30661643,5844.008829,1061331.738
421,"30.5080389773, -87.6471946322",30.5080389773,-87.6471946322,649,5559,Navy Active,NOLF Summerdale,,AL,United States,Active,4.29074585,0.87455448,8223.424769,3061492.093
422,"13.5358626798, 144.914804435",13.5358626798,144.914804435,701,5752,Navy Active,Santa Rosa Parcel B,Joint Region Marianas,GU,Guam,Active,0.60446081,0.01497266,979.8300617,41272.55267
423,"33.984552387, -98.4996936818",33.984552387,-98.4996936818,729,5943,AF Active,Sheppard AFB,,TX,United States,Active,12.37061032,7.00485874,24506.82485,26453770.19
424,"48.1896005828, -122.632442292",48.1896005828,-122.632442292,740,5984,Navy Active,OLF Coupeville,,WA,United States,Active,6.92338408,1.04788297,17024.32333,6101999.956
425,"43.0489402334, -115.865880301",43.0489402334,-115.865880301,751,6053,AF Active,Mountain Home AFB,,ID,United States,Active,12.65257109,9.42344916,28675.56515,45725115.18
426,"39.121056975, -121.395465168",39.121056975,-121.395465168,764,6169,AF Active,Beale AFB,,CA,United States,Active,29.51014189,36.18826308,63311.5902,155936860.8
427,"34.6433579946, -77.3051040489",34.6433579946,-77.3051040489,768,6195,MC Active,MCB Camp Lejeune (East Site),,NC,United States,Active,174.2671753,88.05265063,351176.7987,337741925.5
428,"28.233869335, -80.6080075194",28.233869335,-80.6080075194,775,6230,AF Active,Patrick AFB,,FL,United States,Active,18.43883883,3.02444993,33980.83523,10129385.96
429,"38.0513971399, -122.018795364",38.0513971399,-122.018795364,47,102,Army Active,Military Ocean Terminal Concord,,CA,United States,Active,34.93170367,9.31225766,74106.46466,38958616.55
430,"36.6697817061, -87.6718272017",36.6697817061,-87.6718272017,82,586,Army Active,Fort Campbell KY,,KY,United States,Active,65.30685697,57.96505553,136190.2527,233807524.0
431,"41.5170748739, -90.5411561301",41.5170748739,-90.5411561301,106,679,Army Active,Rock Island Arsenal,,IL,United States,Active,10.12334765,1.40384772,22616.45343,6490725.646
432,"30.405301276, -81.6216735389",30.405301276,-81.6216735389,157,1199,MC Reserve,Jacksonville FL Maint,,FL,United States,Active,2.27205097,0.17706,4372.698995,618548.0294
433,"21.3182154989, -157.988054568",21.3182154989,-157.988054568,163,1239,MC Active,Puuloa-Oahu,,HI,United States,Active,2.26757498,0.24891757,3940.802319,746563.4806
434,"41.4753432866, -71.3399358753",41.4753432866,-71.3399358753,193,1360,Navy Active,Fort Adams RI,,RI,United States,Active,1.24001498,0.03755488,2748.357763,173414.2708
435,"30.3815861854, -81.4248272955",30.3815861854,-81.4248272955,235,1549,Navy Active,NAVSTA Mayport FL,,FL,United States,Active,14.6884409,5.36687841,28068.65789,18739358.95
436,"27.6924886772, -97.2793198862",27.6924886772,-97.2793198862,239,1560,Navy Active,NAS Corpus Christi TX,,TX,United States,Active,13.66429392,4.41900068,25380.39325,14653541.78
437,"30.4291906458, -86.6987100281",30.4291906458,-86.6987100281,245,1658,AF Active,Hurlburt Field,,FL,United States,Active,15.08632469,9.97662301,28951.18577,34867579.75
438,"44.892490313, -93.2071583527",44.892490313,-93.2071583527,297,2502,AF Reserve,Minn-St Paul,,MN,United States,Active,4.33354996,0.3590452,10139.1838,1852960.256
439,"34.7135727132, -120.55814563",34.7135727132,-120.55814563,302,2515,AF Active,Vandenberg Main Base,,CA,United States,Active,97.65642847,154.771353,195856.3131,594654609.8
440,"35.4076597475, -97.611671339",35.4076597475,-97.611671339,395,2898,AF Guard,Will Rogers World Airport,,OK,United States,Active,1.78869294,0.21183731,3624.130824,827738.1589
441,"42.3382282871, -104.809449137",42.3382282871,-104.809449137,443,3197,Army Guard,NG MTCH Camp Guernsey,,WY,United States,Active,131.3631221,123.2318046,295060.8369,584514953.1
442,"35.2565207847, -94.1634392414",35.2565207847,-94.1634392414,456,3333,Army Guard,NG Fort Chaffee MTC,,AR,United States,Active,82.34844951,101.7510307,167345.132,396115087.5
443,"31.0902463593, -89.0068676906",31.0902463593,-89.0068676906,468,3439,Army Guard,NG MTA Camp Shelby,,MS,United States,Active,109.7643707,216.3044083,211570.5653,766339119.1
444,"32.6629164638, -111.488032827",32.6629164638,-111.488032827,482,3581,Army Guard,NG Picacho Aviation TS,,AZ,United States,Active,2.96368502,0.51344293,5816.398863,1881634.143
445,"41.7003516585, -70.5448394116",41.7003516585,-70.5448394116,538,4379,Army Guard,NG MTA Camp Edwards,,MA,United States,Active,36.9530397,32.11642959,81942.11541,149331098.7
446,"39.4979931517, -76.8456986902",39.4979931517,-76.8456986902,597,5209,Army Guard,NG MTA Camp Fretterd,,MD,United States,Active,4.25629409,0.91768655,9207.764355,3996837.13
447,"28.6111807311, -97.6121549462",28.6111807311,-97.6121549462,624,5465,Navy Active,NALF Goliad,,TX,United States,Active,9.67671358,1.77579793,18097.61816,5989550.523
448,"24.5688912079, -81.7508073951",24.5688912079,-81.7508073951,637,5521,Navy Active,Naval Hospital,,FL,United States,Active,0.64248908,0.02430987,1151.03668,76457.84164
449,"39.0567083217, -76.6762764474",39.0567083217,-76.6762764474,687,5700,Navy Active,Gambrills,,MD,United States,Active,6.29121013,1.30537598,13439.99399,5614751.759
450,"38.9898516944, -76.4624264305",38.9898516944,-76.4624264305,688,5701,Navy Active,NAVACAD North Severn,,MD,United States,Active,9.39997803,1.28355894,19943.69552,5510561.93
451,"36.5916541246, -121.860796344",36.5916541246,-121.860796344,693,5724,Navy Active,Navy Annex,,CA,United States,Active,2.35051998,0.18969614,4881.052147,763619.3722
452,"13.5867244468, 144.862277501",13.5867244468,144.862277501,700,5750,Navy Active,Potts Tank Farm,Joint Region Marianas,GU,Guam,Active,0.71370768,0.03023694,1158.583738,83384.52987
453,"38.5491137312, -77.2131682728",38.5491137312,-77.2131682728,706,5760,Navy Active,Stump Neck Area,,MD,United States,Active,16.24247393,1.73972264,34481.1124,7378003.164
454,"30.4078255445, -88.9216855143",30.4078255445,-88.9216855143,726,5934,AF Active,Keesler AFB,,MS,United States,Active,9.50161188,2.22337201,18163.00263,7767368.53
455,"47.5591924008, -122.635482091",47.5591924008,-122.635482091,761,6165,Navy Active,Shipyard Puget Sound,,WA,United States,Active,3.25852438,0.45793782,8015.086123,2603017.165
456,"35.9554065709, -121.253769516",35.9554065709,-121.253769516,11,27,Army Reserve,Fort Hunter Liggett,,CA,United States,Active,112.2852801,252.8114735,230440.8494,1001382159.0
457,"39.1866803598, -96.8208663239",39.1866803598,-96.8208663239,23,61,Army Active,Fort Riley,,KS,United States,Active,76.12423409,158.9466387,162635.9196,686176867.4
458,"31.359582043, -86.0139459687",31.359582043,-86.0139459687,37,77,Army Active,Stinson 5AB Stagefield AL,,AL,United States,Active,2.09866788,0.27093983,4058.93737,965337.6281
459,"40.1545151653, -113.284084389",40.1545151653,-113.284084389,78,577,Army Active,Dugway Proving Ground,,UT,United States,Active,166.5426305,1250.770262,363921.2216,5551862347.0
460,"38.1554946642, -78.4136946349",38.1554946642,-78.4136946349,84,605,Army Active,Rivanna Station,,VA,United States,Active,1.74910696,0.11804562,3675.937772,495250.8114
461,"44.1248120384, -75.5920674235",44.1248120384,-75.5920674235,93,645,Army Active,Fort Drum,,NY,United States,Active,83.64489799,170.1439048,193275.2809,855405629.2
462,"42.2895101722, -71.3633494213",42.2895101722,-71.3633494213,104,673,Army Active,US Army Soldier Systems Center Natick,,MA,United States,Active,1.73908776,0.10050346,3892.612794,475974.5677
463,"33.402984165, -94.2554165694",33.402984165,-94.2554165694,123,974,Army Active,Lone Star AAP (BRAC 2005),,TX,United States,Inactive,35.18744116,11.29811339,69813.38379,42099032.48
464,"39.8434493746, -104.839363783",39.8434493746,-104.839363783,124,975,Army Active,Rocky Mountain Arsenal,,CO,United States,Inactive,50.79558651,5.80991778,109626.9495,25556434.3
465,"34.8905585366, -116.870241242",34.8905585366,-116.870241242,145,1139,MC Active,Yermo Area,,CA,United States,Active,9.11344588,2.64181706,18363.91371,10193706.63
466,"36.8887856719, -76.3605553448",36.8887856719,-76.3605553448,165,1279,Navy Active,Craney Island,,VA,United States,Active,8.58664027,1.14872858,17821.34129,4659822.235
467,"37.2448033923, -76.5855659537",37.2448033923,-76.5855659537,174,1296,Navy Active,Naval Weapons Station Yorktown,,VA,United States,Active,17.12229581,16.23443339,35802.65421,66470881.96
468,"36.9231148685, -76.0174690076",36.9231148685,-76.0174690076,183,1323,Navy Active,JEBLCFS East,Joint Expeditionary Base Little Creek - Fort Story,VA,United States,Active,7.03987052,2.44218058,14778.57324,9915567.315
469,"36.6512553805, -115.640007706",36.6512553805,-115.640007706,257,1704,AF Active,Creech AFB,,NV,United States,Active,123.2728757,211.7709777,255508.62,853198423.3
470,"47.5059106291, -111.182777387",47.5059106291,-111.182777387,282,2060,AF Active,Malmstrom AFB,,MT,United States,Active,11.7428722,5.1197989,28870.4971,29042303.64
471,"48.4210623214, -101.338350153",48.4210623214,-101.338350153,283,2228,AF Active,Minot AFB,,ND,United States,Active,17.73537119,7.75923308,44277.73987,45592556.83
472,"38.9946516318, -104.857157781",38.9946516318,-104.857157781,296,2499,AF Active,USAF Academy,,CO,United States,Active,36.94683316,28.81367101,78208.7549,123719286.6
473,"18.4637645502, -67.0658346043",18.4637645502,-67.0658346043,305,2519,AF Active,Isabela Puerto Rico,,PR,Puerto Rico,Active,3.4817657,0.64752032,5888.772157,1874088.158
474,"34.9040005265, -92.1384692754",34.9040005265,-92.1384692754,321,2561,AF Active,Little Rock AFB,,AR,United States,Active,14.60126902,9.71379196,29630.71719,37493115.36
475,"21.3636803488, -157.710220122",21.3636803488,-157.710220122,332,2593,AF Active,Bellows,,HI,United States,Active,5.40831439,0.6427876,9401.380905,1929049.062
476,"33.5362891829, -112.374183665",33.5362891829,-112.374183665,337,2602,AF Active,Luke AFB,,AZ,United States,Active,18.59304004,4.54293907,36938.32527,16979511.08
477,"32.3244710273, -90.0826770417",32.3244710273,-90.0826770417,360,2820,AF Guard,Jackson IAP Thompson Field,,MS,United States,Active,3.18635924,0.18841526,6204.219566,685359.6016
478,"41.6461510573, -70.5337300198",41.6461510573,-70.5337300198,373,2854,AF Guard,Otis ANG Base,,MA,United States,Active,8.20949827,1.07957185,18252.46384,5011277.264
479,"39.8128368963, -82.9437124972",39.8128368963,-82.9437124972,379,2862,AF Guard,Rickenbacker,,OH,United States,Active,3.17840196,0.26336079,6855.520187,1157447.084
480,"42.6124987986, -82.8324160105",42.6124987986,-82.8324160105,384,2879,AF Guard,Selfridge ANGB,,MI,United States,Active,11.9763104,4.84474071,26963.11509,23180355.85
481,"43.9362601246, -90.2543423584",43.9362601246,-90.2543423584,394,2895,AF Guard,Volk ANGB,,WI,United States,Active,10.88799346,3.46476952,25246.65613,17309517.04
482,"46.8449538206, -92.172128284",46.8449538206,-92.172128284,399,2905,AF Guard,Duluth IAP,,MN,United States,Active,3.62073643,0.23824589,8684.920285,1318434.768
483,"41.5865259257, -83.7919651408",41.5865259257,-83.7919651408,403,2917,AF Guard,Toledo/Exp Airport,,OH,United States,Active,2.79467094,0.2112758,6222.191883,978927.5029
484,"41.3313986668, -72.1879440898",41.3313986668,-72.1879440898,433,3130,Army Guard,NG Camp Niantic,,CT,United States,Active,2.25538866,0.1272156,4974.621542,584855.7814
485,"33.7179613001, -85.9502653692",33.7179613001,-85.9502653692,457,3337,Army Guard,NG Pelham Range Training Site - Fort McClellan,,AL,United States,Active,25.51423338,34.72625367,50889.77058,130335343.5
486,"35.781595342, -120.780040594",35.781595342,-120.780040594,520,4050,Army Guard,NG MTC-H Camp Roberts,,CA,United States,Active,43.04942674,66.57950519,87359.84944,262575893.2
487,"45.5648760428, -94.1774187425",45.5648760428,-94.1774187425,539,4395,Army Guard,NG St Cloud NG Armory,,MN,United States,Active,0.47940595,0.01012664,1155.363183,53504.33034
488,"30.3578247818, -91.1408358591",30.3578247818,-91.1408358591,547,4537,Army Guard,NG Baton Rouge AFRC,,LA,United States,Active,1.76793402,0.07949045,3378.593911,277427.0842
489,"47.7711996949, -98.7161638156",47.7711996949,-98.7161638156,555,4620,Army Guard,NG Camp Grafton,,ND,United States,Active,39.21101987,18.11781989,96551.70928,103818543.0
490,"40.1899589793, -75.5558107769",40.1899589793,-75.5558107769,569,4797,Army Guard,NG Spring City Readiness Center,,PA,United States,Active,1.12202011,0.08243453,2460.329353,366282.5848
491,"39.4323773898, -76.5050135446",39.4323773898,-76.5050135446,596,5207,Army Guard,NG MTA Gunpowder Military Reservation,,MD,United States,Active,3.21346546,0.39683503,6845.084341,1725123.377
492,"43.5892992575, -96.6754244833",43.5892992575,-96.6754244833,600,5324,Army Guard,NG Sioux Falls Benson Rd Complex,,SD,United States,Active,1.17532548,0.0888212,2709.911893,438657.0035
493,"21.3813432543, -157.974037315",21.3813432543,-157.974037315,614,5421,Navy Active,Pearl City,Joint Base Pearl Harbor - Hickam,HI,United States,Active,9.66286982,0.90113404,16800.34828,2704995.804
494,"13.4890012867, 144.86534429",13.4890012867,144.86534429,667,5614,Navy Active,Marbo,Joint Region Marianas,GU,Guam,Active,0.20921927,0.00252842,340.0538925,6966.990351
495,"34.8902967213, -117.848771224",34.8902967213,-117.848771224,725,5920,AF Active,Edwards AFB,,CA,United States,Active,113.3904968,481.5408098,230297.2181,1858031037.0
496,"38.9214186847, -77.0670325804",38.9214186847,-77.0670325804,735,5979,Navy Active,Naval Observatory,,DC,United States,Active,1.1550366,0.11269509,2463.4198,482895.6213
497,"37.9070173886, -85.8831225305",37.9070173886,-85.8831225305,19,52,Army Active,Fort Knox,,KY,United States,Active,85.35675698,170.0075073,179278.3449,708471005.5
498,"37.7054875554, -92.1571252371",37.7054875554,-92.1571252371,21,58,Army Active,Fort Leonard Wood,,MO,United States,Active,51.59341215,96.41521477,108216.9781,399621817.7
499,"31.4040790084, -85.7473894209",31.4040790084,-85.7473894209,29,68,Army Active,Fort Rucker AL,,AL,United States,Active,60.30741551,90.88878916,116795.2562,324133719.8
500,"42.4973285111, -83.0413341243",42.4973285111,-83.0413341243,85,610,Army Active,Detroit Arsenal,,MI,United States,Active,2.55583336,0.28746763,5726.157496,1370399.183
501,"63.9667780882, -145.715113744",63.9667780882,-145.715113744,94,646,Army Active,Fort Greely,,AK,United States,Active,16.6596204,10.67476022,60174.01297,142943258.1
502,"38.9504184947, -85.4176312593",38.9504184947,-85.4176312593,118,949,Army Active,Jefferson Proving Ground,,IN,United States,Inactive,66.58660775,82.48045269,141187.6455,353714089.2
503,"37.7212275293, -120.919493007",37.7212275293,-120.919493007,131,1014,Army Active,Riverbank AAP,,CA,United States,Inactive,3.18810746,0.24811282,6575.668793,1028810.934
504,"43.0813485814, -70.7333351232",43.0813485814,-70.7333351232,194,1364,Navy Active,NSY Portsmouth,,ME,United States,Active,7.00352791,0.5000837,15984.67245,2429054.633
505,"41.7536642401, -70.539124869",41.7536642401,-70.539124869,249,1674,AF Active,Cape Cod Air Station,,MA,United States,Active,3.71654684,0.15131146,8203.927611,704708.3156
506,"33.8931849532, -118.070170962",33.8931849532,-118.070170962,273,1800,AF Reserve,Norwalk 2,,CA,United States,Active,1.09520406,0.07821894,2189.316184,294766.5868
507,"39.4481861918, -74.5814031458",39.4481861918,-74.5814031458,345,2772,AF Guard,Atlantic City IAP,,NJ,United States,Active,3.86036065,0.46246532,8301.709248,2011326.709
508,"38.3731944221, -81.5895194077",38.3731944221,-81.5895194077,397,2903,AF Guard,Yeager Airport,,WV,United States,Active,2.20015732,0.19296441,4624.992243,814393.0683
509,"33.7222321357, -84.358887856",33.7222321357,-84.358887856,426,3027,Army Guard,NG Atlanta - Confederate Ave,,GA,United States,Active,2.30970448,0.10686207,4565.869751,401116.9213
510,"40.2146157734, -75.4284194801",40.2146157734,-75.4284194801,431,3097,Army Guard,NG Collegeville FMS 4,,PA,United States,Active,1.17466434,0.08080989,2568.912312,359325.6372
511,"33.4645500341, -112.601760483",33.4645500341,-112.601760483,450,3276,Army Guard,NG Buckeye TS,,AZ,United States,Active,8.93831033,2.34453102,17485.36825,8748463.498
512,"33.6173832012, -84.309923744",33.6173832012,-84.309923744,461,3366,Army Guard,NG Oglethorpe Armory,,GA,United States,Active,1.11264814,0.05061777,2218.376948,189540.524
513,"39.6334303612, -75.6070696877",39.6334303612,-75.6070696877,487,3685,Army Guard,NG River Road Training Site,,DE,United States,Active,2.33556003,0.29793851,5025.686165,1302666.184
514,"43.1442443568, -115.652542493",43.1442443568,-115.652542493,518,4039,Army Guard,NG Edgemeade TS Mtn Home,,ID,United States,Active,2.18142403,0.23233542,4980.027743,1130827.176
515,"35.2643197322, -97.480057288",35.2643197322,-97.480057288,545,4521,Army Guard,NG Norman CSMS,,OK,United States,Active,1.28003708,0.0637749,2589.382925,248321.7591
516,"43.0858827247, -72.4513120197",43.0858827247,-72.4513120197,554,4607,Army Guard,NG Westminster Training Site,,VT,United States,Active,1.39748781,0.07495596,3194.113527,364137.1567
517,"34.9312156533, -85.0590610783",34.9312156533,-85.0590610783,567,4783,Army Guard,NG VTS Catoosa,,GA,United States,Active,9.74430427,2.54628306,19560.12499,9834557.067
518,"36.0180985881, -86.5036120259",36.0180985881,-86.5036120259,568,4784,Army Guard,NG VTS Smyrna,,TN,United States,Active,7.24220938,1.33363901,14854.88225,5290758.79
519,"37.0337681833, -113.547140891",37.0337681833,-113.547140891,579,4924,Army Guard,NG Saint George/FMS 5B,,UT,United States,Active,1.45217811,0.10754967,2990.090649,437926.707
520,"32.8253936819, -115.668153219",32.8253936819,-115.668153219,618,5435,Navy Active,NAF El Centro,,CA,United States,Active,11.84536412,4.18521119,23393.50494,15393093.5
521,"30.3562317642, -81.8711131789",30.3562317642,-81.8711131789,629,5498,Navy Active,OLF Whitehouse,,FL,United States,Active,26.36286576,7.75551929,50314.86582,27065636.46
522,"28.5841677574, -81.1967624389",28.5841677574,-81.1967624389,652,5583,Navy Active,Naval Support Activity Orlando,,FL,United States,Active,1.23958402,0.06458218,2322.477489,217717.9009
523,"34.5852155946, -117.373249538",34.5852155946,-117.373249538,710,5823,AF Active,George AFB,,CA,United States,Inactive,17.73438578,8.2408062,35504.70066,31565654.46
524,"38.3398584637, -77.0325546791",38.3398584637,-77.0325546791,720,5899,Navy Active,NSA South Potomac,,VA,United States,Active,8.65673826,4.17467402,18224.00315,17602829.41
525,"47.9545695614, -97.3916932722",47.9545695614,-97.3916932722,749,6023,AF Active,Grand Forks AFB,,ND,United States,Active,17.0289211,8.25769962,41915.49058,47651446.65
526,"38.0259039103, -122.16702561",38.0259039103,-122.16702561,770,6203,AF Active,Ozol Defense Fuel Support Point,,CA,United States,Active,2.4318231,0.08125435,5104.412764,339699.4788
527,"47.2162520667, -119.310549756",47.2162520667,-119.310549756,42,94,Army Active,Grant Training Annex,Joint Base Lewis - McChord,WA,United States,Active,2.56714919,0.0553791,6346.207451,310731.5997
528,"41.3614873711, -74.0248942546",41.3614873711,-74.0248942546,68,272,Army Active,West Point Military Reservation,,NY,United States,Active,37.18808259,24.77684534,82034.55519,114012756.2
529,"39.0329014118, -76.9604679336",39.0329014118,-76.9604679336,72,569,Army Active,US Army Adelphi Laboratory Center,,MD,United States,Active,3.52680484,0.32145105,7507.322548,1381714.958
530,"39.0334336403, -77.0417682376",39.0334336403,-77.0417682376,91,643,Army Active,Fort Detrick Glen Haven Annex,,MD,United States,Active,0.876507,0.0305621,1886.028977,131368.9001
531,"64.5447194846, -147.708445641",64.5447194846,-147.708445641,111,876,Army Active,Fort Wainwright,,AK,United States,Active,211.701871,1034.022421,770708.8639,14438114406.0
532,"42.2279934146, -90.3368472542",42.2279934146,-90.3368472542,120,963,Army Active,Savanna Depot Act,,IL,United States,Inactive,46.71413434,13.32299217,104996.1466,62974183.7
533,"40.9388913146, -98.5167759592",40.9388913146,-98.5167759592,125,977,Army Active,Cornhusker AAP,,NE,United States,Inactive,5.00437744,0.58275256,11050.29154,2647490.326
534,"34.621693842, -77.4992450772",34.621693842,-77.4992450772,142,1126,MC Active,MCB Camp Lejeune (West Site),,NC,United States,Active,137.4673019,106.6198489,275265.6504,408750411.5
535,"21.4453917613, -157.751594777",21.4453917613,-157.751594777,164,1240,MC Active,MCB Hawaii (Kaneohe Bay),,HI,United States,Active,13.49084082,4.76390576,23474.76759,14312635.79
536,"36.7885299152, -75.9653974721",36.7885299152,-75.9653974721,171,1292,Navy Active,Dam Neck,,VA,United States,Active,13.56827918,2.97338015,27899.37337,12030209.12
537,"36.6942700107, -76.1329722649",36.6942700107,-76.1329722649,186,1335,Navy Active,ALF Fentress Chesapke,,VA,United States,Active,13.32224036,4.04743655,27463.02048,16336000.99
538,"38.9749001795, -77.192328114",38.9749001795,-77.192328114,206,1414,Navy Active,NSWC Carderock,,MD,United States,Active,3.02871036,0.28440109,6551.118432,1220478.429
539,"13.4563838661, 144.812569881",13.4563838661,144.812569881,215,1436,Navy Active,Barrigada - NSA Andersen,Joint Region Marianas,GU,Guam,Active,4.20107206,0.67529159,6844.901242,1860245.622
540,"47.5661084246, -122.545637948",47.5661084246,-122.545637948,228,1512,Navy Active,Manchester,,WA,United States,Active,3.09644878,0.49707358,7676.371777,2826122.049
541,"33.858772816, -118.235754982",33.858772816,-118.235754982,271,1794,AF Active,Los Angeles Air Force Annex No4,,CA,United States,Active,0.31869193,0.00634495,635.4725049,23891.74444
542,"44.1579766168, -103.094346705",44.1579766168,-103.094346705,279,1819,AF Active,Ellsworth AFB,,SD,United States,Active,11.10121803,6.19323949,25787.17243,31172041.18
543,"43.5568774906, -116.222478963",43.5568774906,-116.222478963,347,2778,AF Guard,Boise Air Terminal,,ID,United States,Active,6.10816747,0.9191414,14086.92059,4534410.987
544,"43.1027478687, -76.1033314086",43.1027478687,-76.1033314086,357,2813,AF Guard,Hancock Field,,NY,United States,Active,3.69960181,0.42186999,8526.991214,2050549.721
545,"32.3048358496, -86.4015268137",32.3048358496,-86.4015268137,370,2850,AF Guard,Montgomery Regional Airport ANGB,,AL,United States,Active,1.88042428,0.09895828,3722.77337,359808.8077
546,"33.4258330523, -112.011682902",33.4258330523,-112.011682902,387,2886,AF Guard,Sky Harbor IAP,,AZ,United States,Active,1.42847234,0.09408599,2843.461209,350766.49
547,"40.0037812107, -74.523842926",40.0037812107,-74.523842926,404,2918,AF Active,Dix,Joint Base McGuire - Dix - Lakehurst,NJ,United States,Active,54.00688149,48.42194574,117271.1303,213988762.5
548,"39.8478937488, -89.6677190978",39.8478937488,-89.6677190978,413,2936,AF Guard,Capital Airport,,IL,United States,Active,1.8553527,0.14707993,3981.389893,647052.9654
549,"43.2971106582, -116.059842836",43.2971106582,-116.059842836,439,3170,Army Guard,NG Orchard Mates Boise,,ID,United States,Active,4.51784953,0.33898085,10446.50639,1658116.059
550,"44.0257924999, -121.128279438",44.0257924999,-121.128279438,441,3182,Army Guard,NG Bend Cotef,,OR,United States,Active,1.92589058,0.24647883,4445.186624,1235068.518
551,"35.885569159, -88.6648080701",35.885569159,-88.6648080701,460,3357,Army Guard,NG VTS Milan,,TN,United States,Active,20.6102512,3.89062931,41853.21328,15383842.79
552,"33.0987644874, -111.356808928",33.0987644874,-111.356808928,497,3769,Army Guard,NG Florence Military Reservation,,AZ,United States,Active,24.73403119,9.83201905,48641.58486,36384145.81
553,"41.7941540406, -80.0478951",41.7941540406,-80.0478951,536,4342,Army Guard,NG Cambridge Springs,,PA,United States,Active,2.19027247,0.16570191,4855.171733,772697.4443
554,"43.928022567, -90.269506769",43.928022567,-90.269506769,588,5073,Army Guard,NG Camp Williams Tomah MTA,,WI,United States,Active,2.63637616,0.17787205,6086.880781,888381.1132
555,"27.634308153, -97.3138397664",27.634308153,-97.3138397664,623,5464,Navy Active,ALF Waldron,,TX,United States,Active,10.967386,1.32579425,20274.77549,4391818.433
556,"24.5749669839, -81.69039869",24.5749669839,-81.69039869,634,5512,Navy Active,NAS Key West FL,,FL,United States,Active,62.75683769,6.12365514,112612.8525,19261598.63
557,"32.9177764497, -106.133624679",32.9177764497,-106.133624679,734,5978,AF Active,Holloman AFB,,NM,United States,Active,53.65912605,79.56915038,105002.4295,293258067.7
558,"47.9773954717, -116.561529071",47.9773954717,-116.561529071,748,6009,Navy Active,Bayview Idaho,,ID,United States,Active,1.48647503,0.04081989,3648.27301,235759.8863
559,"40.0203299941, -77.7018175626",40.0203299941,-77.7018175626,3,3,Army Active,Letterkenny Army Depot,,PA,United States,Active,26.41286105,28.0193493,57283.47455,123884195.6
560,"37.4975893419, -103.918064485",37.4975893419,-103.918064485,14,44,Army Active,Pinon Canyon,,CO,United States,Active,102.4938555,367.9802549,215458.8967,1516772155.0
561,"31.2857344505, -86.12984115",31.2857344505,-86.12984115,36,76,Army Active,Skelly Stagefield AL,,AL,United States,Active,2.34611504,0.23301706,4497.769645,828932.579
562,"21.3619820362, -157.889639813",21.3619820362,-157.889639813,54,158,Army Active,Tripler Army Medical Center,,HI,United States,Active,3.46900298,0.55980472,6031.4332,1679973.963
563,"35.0231361057, -77.2587195143",35.0231361057,-77.2587195143,140,1116,MC Active,Oak Grove,,NC,United States,Active,6.5167107,1.48466017,13160.29603,5746998.975
